Timestamp,Altitude,Speed,Heading,Temperature,Pressure,Vibration,Latitude,Longitude,Roll,Pitch,Yaw,Engine RPM,Fuel Level,Weather Conditions
2024-07-15 12:11:40.740018,28821.228479235564,414.79823875876104,112.53737965159505,-50.51995315231035,1018.747744080722,0.4929230829058818,41.722182682756056,156.11655304154357,-53.74402629990014,-71.2480162056465,189.25535977566534,2493.9385446850833,52.0144203638494,Clear
2024-07-15 12:11:41.740018,29813.600373401685,496.963042954432,103.22950414699089,-40.29013716886986,1007.9643183099791,0.47530103937336565,36.34271980486956,-98.9029666354885,175.5836915408952,54.46228135434282,100.57019502063638,2096.1675258043574,77.69530774556678,Stormy
2024-07-15 12:11:42.740018,30049.090235231786,435.9826164465569,238.2424530124227,-48.11338471716373,1010.5938915888999,0.4972489863549998,17.161840382254198,-41.34228395684613,-32.17669568285464,41.34127485300013,308.74042206161744,2075.0989451154537,43.92328027628232,Stormy
2024-07-15 12:11:43.740018,30489.40454370067,481.0367123756267,153.6560900521057,-55.21570058714305,994.7207911433441,0.5403561810773381,85.90842467053335,65.60545847053746,102.6783700269529,-71.50060000205107,39.02767222316002,1910.99583920258,26.99052989584527,Stormy
2024-07-15 12:11:44.740018,30375.244891442588,565.7342748000214,83.02848000858077,-46.213967613826455,1015.1198026826278,0.6072756922744696,9.36715951779179,-55.65180789921487,20.567326149578435,-78.26676391028784,309.25148375966313,1768.96091935653,18.358703459748803,Cloudy
2024-07-15 12:11:45.740018,29261.6846292603,503.43186463436496,188.48184841478496,-54.735276194574105,1008.1075179977593,0.2595433641861786,-23.604048681978128,-69.30503150073993,-179.67607634089873,49.3165230164,170.84666918537138,2192.188829353665,57.46432155786307,Clear
2024-07-15 12:11:46.740018,30546.7208203884,525.9593650758782,89.62143965824272,-51.1090724399825,1006.6830542853634,0.5594715642950084,80.36327445330068,-66.6258817965331,-35.47819385337587,-68.48243226943706,231.59830270224512,2199.0025242003467,20.34198814925746,Cloudy
2024-07-15 12:11:47.740018,29563.855953006143,558.1436571261727,173.63535106603112,-50.51386039194296,1025.1606563585308,0.3168629650756999,-77.47765210453379,-161.2144716676827,126.50643927047253,-50.21085365309539,286.2864454484661,1506.2350025864891,10.039147670265436,Stormy
2024-07-15 12:11:48.740018,30144.89934565831,389.4108126103731,55.65909933220047,-55.06108206795108,1024.0809016836808,0.48348587923773906,10.90338307947873,-57.08003368806206,13.57651618429199,-24.990372923692874,18.30014403017349,1819.058372021683,90.90085874652314,Stormy
2024-07-15 12:11:49.740018,29383.568457634006,526.1948354670567,215.43352348600638,-49.545613530403244,1018.5715533299187,0.5845899056687055,-32.11712049427229,-163.20808651183302,-139.23788793476686,9.313548568111017,16.75473054781181,1988.5780918146752,5.785202554566482,Clear
2024-07-15 12:11:50.740018,45484.53965032339,498.78359476603936,45.56711531590558,-57.8368578120951,970.4350131684398,0.5533385788505836,56.459418551550044,148.99392760518032,115.06564319912843,-19.24198134072296,244.23069746403434,1475.5861909800544,64.28817752834843,Stormy
2024-07-15 12:11:51.740018,30585.890795384526,495.171401362976,139.87642044242781,-44.09940592025639,1007.2737115208806,0.5581273505111888,-40.347920216334145,-101.12356936915663,-29.648974852918542,54.3618171899642,199.07340269258015,2192.147499918958,53.508522165096416,Cloudy
2024-07-15 12:11:52.740018,31328.14597911026,483.36343101638215,26.164204160045173,-46.974628851109316,1027.9909196944611,0.5236370497081132,41.08919867730927,-113.43582383279475,48.68950703609093,-71.3287851162772,325.6700399530726,1964.0888951399522,2.492010398753519,Cloudy
2024-07-15 12:11:53.740018,30344.521931712294,505.2187982847421,341.6758480085491,-58.538594139213046,1022.9374649365808,0.3113040084043439,-27.678178604103977,-101.05017059168998,-131.18128026772416,-64.75140451124958,81.17771306543649,1941.131913518781,5.372512226994363,Stormy
2024-07-15 12:11:54.740018,29259.339920273258,461.5606228912362,69.50090738147922,-43.068193324926135,1014.4928685721185,0.5130826411556308,50.22544427316669,-142.13940050278427,70.0152311595954,-86.12927126463468,239.456493957703,1737.0304837181898,15.965509284916578,Clear
2024-07-15 12:11:55.740018,28670.101088560954,581.8152185971545,280.1855335856069,-46.55393082877436,1005.1669625271428,0.40357176756018076,-64.51795200546123,-106.57391054936053,-165.73566539022193,-39.301072231755114,60.122343954932525,1982.6729799925872,87.0007186707523,Clear
2024-07-15 12:11:56.740018,30133.15221581825,441.44178687710695,241.0758012686265,-48.604377989412264,1008.7939049467864,0.5473399167529074,60.1997033959253,-63.98130620622179,132.17136018997036,-62.01521368378097,311.3452628954548,1976.731192892885,12.372683039712562,Cloudy
2024-07-15 12:11:57.740018,28491.416599409302,430.41219169357396,109.37718888754613,-53.079588212329654,1010.1210337738996,0.4732844078011164,-31.82413586787115,-85.69446217963369,-109.3790151762428,70.58247051201133,259.07914438938707,2035.0830999968255,19.43735592730973,Cloudy
2024-07-15 12:11:58.740018,30160.26090224098,495.83583853517507,236.7271692501735,-46.41079486263027,1012.1526236727959,0.6213656533470153,-3.5570418246554567,128.55885805827353,91.92725069169842,-35.6042452210786,15.27637195034464,1798.7691743988964,95.91726478030384,Stormy
2024-07-15 12:11:59.740018,29730.492099054405,447.76669428310385,123.93407592745078,-50.73378562436346,1009.0643954291298,0.654630542674639,0.13499153525390284,115.93508339662537,-164.985508564813,-85.5204560033986,51.82590836882638,2154.426168696308,17.911141330356973,Cloudy
2024-07-15 12:12:00.740018,29847.494193930725,499.97741073823903,51.11114745036906,-53.087334111433506,1019.4293387019676,0.440461714572013,-18.932568089234294,-16.394576061491193,-73.24457074971131,-25.98568494902655,244.9321071245255,2066.1570534115185,29.70195016760084,Clear
2024-07-15 12:12:01.740018,29424.509065106722,450.46350964790304,198.45725358188994,-46.886899443939214,1008.4941748448188,0.5365403556240281,-74.93454678800735,-167.237390117097,163.30668652147625,69.31304170876564,310.90863019046805,2104.1722259234502,10.846408213964065,Clear
2024-07-15 12:12:02.740018,29684.620308228405,485.1790076245474,350.3394206616896,-45.39244593052977,1014.8597031950662,0.5053633442275561,53.65427473360998,96.05102811758718,-69.97154414765893,46.58449022949057,23.30473423636154,1960.576104524965,77.73979499751775,Clear
2024-07-15 12:12:03.740018,29613.21752250977,464.18992276939804,320.3721633975551,-43.28021111911587,1003.6249918962309,0.5772093015628778,-71.48938282516738,41.42923404204362,142.1520403132031,70.36024874578442,182.30972408838775,2051.036235570486,84.0956983642288,Cloudy
2024-07-15 12:12:04.740018,31459.658179449194,499.4505363601698,133.9263894882264,-49.294564828732646,1026.8211267493305,0.5793023141401442,-42.208652815332485,51.27479238597124,-84.51327996971564,-41.9271235013245,139.86774786981263,2013.9599795601475,39.16700512220122,Stormy
2024-07-15 12:12:05.740018,29870.481885917965,491.66968025397836,90.8999917095417,-49.9812107143209,1016.5715269997203,0.5880484607741026,5.169366912073215,0.5393340907755828,23.44777656565384,-79.79702538830362,265.46904659245007,1673.9077408916119,86.36076798154802,Stormy
2024-07-15 12:12:06.740018,30559.255507100694,554.6444459188627,157.77723766334842,-50.30745904956582,997.7985462553057,0.49378841023221065,-57.81575581000748,-29.53562238208687,124.74005644926643,13.804265470293998,232.22010277490782,2068.075768422287,80.30579988727725,Cloudy
2024-07-15 12:12:07.740018,30131.441636370237,571.0753203380269,132.32931103826408,-49.540063588077565,1017.2019854446457,0.36547405748237144,-4.336031722251292,127.53722323329686,-165.76020601994804,-35.43123740471149,354.4078228502822,2049.9064077605944,48.06692697990243,Clear
2024-07-15 12:12:08.740018,28813.307347011796,512.3484823906575,351.5344717124036,-47.25295844554283,1008.3581839040562,0.4864597935831027,-25.23632154657136,5.122012149151743,26.923074753026157,-66.39847655011806,52.538293807521136,2118.3040773161315,6.645455607984296,Stormy
2024-07-15 12:12:09.740018,28800.099434639153,473.2854730118771,354.97732956702475,-50.771934794009596,1013.2984296480748,0.6518317133827899,-70.38395557481452,40.52199446733596,-145.55909475429317,69.70967864558605,1.4233517556841502,2106.2660152899707,20.17407993930218,Cloudy
2024-07-15 12:12:10.740018,31312.084079047272,534.0738483031491,160.32364913524938,-51.77311506624863,1006.8491095777736,0.499637027751557,78.75019160471518,-116.08733184712517,-172.160070632561,-21.49900285181532,76.19929430105192,1948.8445319504197,54.239376126647386,Stormy
2024-07-15 12:12:11.740018,31808.56320887253,591.2575044793603,192.9062553673832,-50.359463316609485,1009.7801504232485,0.41732647355949404,-53.01383661803183,-34.84425110409458,-24.75650068389413,-57.502142146469325,347.5954801769203,2243.2960958159797,18.114026020378095,Clear
2024-07-15 12:12:12.740018,30691.320488957823,607.8095777439793,133.92437701862883,-48.85356517471916,1005.1219829342742,0.5683022976514098,-63.18146651548918,-145.73620325155036,100.46733467138824,49.658526537644434,189.7793861023992,1648.564485755146,98.51758813908613,Stormy
2024-07-15 12:12:13.740018,28602.683040475826,459.41934770822957,350.7797414464046,-48.234978504514864,1023.5201769614266,0.5405886031204303,-68.1668699138487,75.35112517639308,-58.330134240452594,-81.58790338044358,299.30317464559937,1704.1907867286995,63.06811411712656,Clear
2024-07-15 12:12:14.740018,29456.73351248028,504.63162553382244,324.0315787158435,-52.410854139672665,1003.0294226474583,0.43765253762906864,-58.18619894860063,-36.844820385663326,40.543106211598285,79.31855391249218,162.72963046059152,2140.4494880896523,15.183305850758256,Clear
2024-07-15 12:12:15.740018,31876.23923779377,443.83217607354356,122.35497498794022,-56.59101477941976,1001.1692970099655,0.5117431953461601,43.609162040017594,72.73360834735001,-21.757503522373895,6.053263143754393,289.33669942210054,1900.0277062567816,93.18159693557388,Cloudy
2024-07-15 12:12:16.740018,29650.205792749945,533.9480054807547,212.3510851171848,-44.83179042834867,1026.9371396898377,0.39312897281837,60.201208949597856,46.72893932545571,117.80879651473072,79.15832715642094,132.7762729492527,2076.3262592858723,99.18364533946968,Cloudy
2024-07-15 12:12:17.740018,30674.10865628286,382.32698766528404,209.65988711118536,-50.99647111922959,1011.713080075549,0.5192542606564813,-0.9200437155032688,-86.8779261932818,-152.8013778002721,-37.06271829432861,353.9145571383928,2045.5726021921716,49.84550743353937,Cloudy
2024-07-15 12:12:18.740018,29573.22050500631,424.2860531774356,164.50624670363524,-51.64825744520216,1007.7370416205379,0.4793158160187163,51.169602402813865,152.12471569244576,74.16263223526047,80.37714258562221,75.81532513626411,1525.7123523240225,70.20877326474506,Cloudy
2024-07-15 12:12:19.740018,29695.379037758437,334.9415603304933,57.891924058217384,-45.79143949457097,1018.4903975524068,0.4615038568518583,-59.73927755553841,142.3402841697798,-71.5022404108965,-34.664240060436725,166.17776871757457,1912.3377506592235,0.45130013452789886,Stormy
2024-07-15 12:12:20.740018,29027.301286491438,425.6530824441858,59.59463965205225,-47.37823219016656,1020.7624432420528,0.3624798701923425,-15.806059544130079,173.78718194961448,137.28540486151638,68.64673800455714,241.6976155274471,2115.591241759189,59.16244101861409,Cloudy
2024-07-15 12:12:21.740018,29520.538886651793,552.1671103468327,340.15731174993164,-49.888220581591376,1011.2888984563862,0.6140992640592439,-79.5426605588947,-87.3790308383014,33.00535063249464,3.3951167579838994,266.6614699120061,2032.536594327295,5.037568047803276,Cloudy
2024-07-15 12:12:22.740018,29539.905147537338,511.9781030675297,242.26942289662526,-47.08666514033665,1019.3378430008752,0.41444093012307204,1.3421364087926975,108.22412806296444,95.05625883426347,13.35744978753803,295.77031307957725,2014.3884800705416,5.220867238632287,Clear
2024-07-15 12:12:23.740018,31334.065604592677,498.4437690315602,66.76629206351868,-52.80262872542179,1005.8424591758172,0.35301282447227456,10.807531991767675,-111.03115792474125,122.84659979906729,-41.31480600951161,290.1350137434494,2042.2244494215622,39.41706877847347,Cloudy
2024-07-15 12:12:24.740018,29009.652956465114,458.4937424089985,199.3998124078131,-45.23823285053745,1010.0594660835676,0.6535390870856613,10.69612652081851,30.356338680829765,-20.420826756022848,24.523773736337887,165.0898498201177,1591.3475256836875,34.6368761296967,Cloudy
2024-07-15 12:12:25.740018,30681.306471914497,491.53920394175407,276.80132325774724,-50.589122049190976,1015.0645021440369,0.5289573971510622,37.870939818703235,13.749035087438784,69.0897073009505,42.809517947610914,139.21201801181766,2183.4056973239854,94.60813333168998,Stormy
2024-07-15 12:12:26.740018,30765.540233853208,565.1555328351476,230.31029422431024,-48.471132082226475,1000.8541059647722,0.48570634865358453,87.83372357989708,71.47207536552915,64.00802425912079,86.47921261939575,168.80168037565724,1899.307847472112,8.682622722222034,Stormy
2024-07-15 12:12:27.740018,29315.687485999235,518.8189525366496,336.31325119186675,-51.973871442037826,1023.6844484865271,0.5134868376423876,-74.9539407590386,10.799909454634047,-96.33575174990254,-57.99174092597543,329.2040206698809,2325.9840413790835,79.26559238594729,Stormy
2024-07-15 12:12:28.740018,30241.58432876159,470.48899411794525,110.11142050255951,-49.96432215836837,1020.2769021797408,0.6446412102431148,-13.955947846853434,41.212550827363515,97.03218978946512,-49.66290528070087,16.982127915199975,1934.0638132768531,60.36494967869439,Clear
2024-07-15 12:12:29.740018,28743.085418715582,486.2549228114276,85.48489951946014,-53.39576170094815,1028.2718400563895,0.4038056318259429,22.246160331431852,-122.99408398667578,165.08901147079797,-10.013300893876647,223.98699544273802,2094.0922686203785,31.91560092364234,Cloudy
2024-07-15 12:12:30.740018,30133.15069545299,534.7116503524462,202.97549981930936,-50.358007239585675,1010.464696787744,0.44905100829050715,-38.94798254020659,46.66013936148627,-39.96108336890893,-26.54651721999476,203.90865895232656,2016.558945879187,64.6188849579398,Clear
2024-07-15 12:12:31.740018,28957.147643503373,547.2337383963301,113.51237768305367,-55.229798592517234,988.7663214292523,0.4781636300056135,78.68792859215594,-46.77940802531697,152.6834493173476,-47.778721531457876,325.7868035422125,1682.0430884395,69.17325666342474,Stormy
2024-07-15 12:12:32.740018,31202.320534791903,613.253082441109,285.1825927750063,-44.64364956262713,1012.9140219923047,0.6140992988204698,-81.19396479510554,118.67915149876819,134.16473296606154,-43.122296185743416,10.882577805827292,2012.3042658402555,66.02863558750606,Clear
2024-07-15 12:12:33.740018,28719.819300057337,483.82952803995653,204.0338952465567,-52.83329847592201,1007.0513483682998,0.5217190901664875,-37.33903112383906,65.75234916039346,67.06637691474842,78.9525699065785,329.584919095654,2314.565768102358,10.342189610789221,Stormy
2024-07-15 12:12:34.740018,29842.9627339048,473.25091532875126,294.3854319300475,-54.897297885471886,1019.7817420585421,0.5586770792870129,-74.16365118968947,-31.031611958965243,103.6390044893073,-42.37624566938365,68.33747375809216,1928.3985130228436,84.9009261040479,Clear
2024-07-15 12:12:35.740018,31210.85619019164,551.5809101091511,319.35270463644946,-43.47811728869156,1022.295188116401,0.674812873615347,-58.74144082157824,-102.16244875012495,-39.19456931037513,71.43713664588873,242.75687659837698,1858.3786589348904,43.39532902143382,Clear
2024-07-15 12:12:36.740018,29848.31512473248,484.7773562683789,92.23302845333129,-47.08130653032548,1020.914292250397,0.4069419201677204,71.54957614963774,39.28756821835054,16.691633422418107,-67.11786609961102,307.50217909110404,1952.0529614039908,60.07441512959342,Clear
2024-07-15 12:12:37.740018,29699.964569004704,492.8365173385974,138.38277022754508,-52.01615472965909,1002.5402058083861,0.5480169332979384,5.855393292885793,103.66168417808473,59.83578703657781,-31.31890044096093,357.53768496445275,1644.7717660819303,6.584583722119175,Cloudy
2024-07-15 12:12:38.740018,29505.242517583498,438.46301019750706,280.4562003577807,-51.743352450811095,1007.4188671713059,0.6307003401977407,85.55142180942542,94.67120515471487,124.43758130735995,25.695031259891664,332.9012908719099,2383.359889399694,0.1876849011621884,Clear
2024-07-15 12:12:39.740018,30146.53861943407,438.539747760502,48.82976182732181,-36.41102225328267,1018.1120041408298,0.4348750555002212,-86.31976565683925,112.31715032701248,-145.48825212716963,83.771994988291,149.0775445469467,2172.5439100874883,83.06425275538184,Cloudy
2024-07-15 12:12:40.740018,29596.42378789584,516.5117839645819,48.894009644192494,-49.52937281159813,1011.8509309296602,0.34466868407676343,-65.29376446204287,-31.33072890942168,-111.63796445218797,-75.7860298525292,28.196547643472396,1798.3070432798725,78.61904608534869,Cloudy
2024-07-15 12:12:41.740018,29752.35451964661,397.73685244596595,107.49015200677984,-49.48877754462398,1004.6428272352982,0.5704291502177838,-79.4432578352888,121.96190401031907,-21.649120963041753,-74.37505959121759,284.63321906104386,1970.2411379488412,45.116673457543754,Clear
2024-07-15 12:12:42.740018,29229.000813050367,537.0394564621357,206.68007128979872,-51.91055167479141,1021.0830510748319,0.45083675037856186,-69.23476184998736,116.34715300954963,25.231744818071093,-30.872981085781483,206.86415332134425,2063.67822921253,49.37259609605783,Cloudy
2024-07-15 12:12:43.740018,30814.062699160848,481.735384453717,333.85007630375173,-56.47554484853207,1011.999601836587,0.5772264894709027,-25.098587480485676,-18.87165185876978,19.611516250399404,6.385882863991796,295.6187093203167,1975.606529707817,75.8529719770102,Clear
2024-07-15 12:12:44.740018,30100.501477914684,450.62007043395903,117.67622153026798,-44.25618914896663,996.0760259122869,0.531354913559789,59.276446195691136,-90.79741335421025,-55.786776676385244,-76.36524805413723,103.52293462986448,1838.9759754587437,3.403680262494868,Stormy
2024-07-15 12:12:45.740018,28880.764122664485,505.9228733995424,181.7334415217298,-50.57376468227685,1011.681994483418,0.38241931355973535,-67.08522744594589,-46.55770778075558,31.427275457943068,-64.13513548306547,174.01760769440062,2122.543197381187,78.67659077539308,Cloudy
2024-07-15 12:12:46.740018,30359.833527831288,495.67919179325094,321.89427158342073,-55.190406062503975,1012.2214950052747,0.464395281106463,-70.14897233489984,92.87476470921428,-77.00661201309345,-65.18722795933506,96.86691209080918,1923.6934411944244,26.714954462187844,Cloudy
2024-07-15 12:12:47.740018,30705.7325767379,460.4489514727766,0.5598869404798856,-54.15379833462817,1012.1780011944862,0.6243360456470772,60.29133084309527,-33.15720074903035,83.32877941695114,-78.76813474134477,15.868362185847392,2423.811466160497,74.58066975144854,Cloudy
2024-07-15 12:12:48.740018,31680.6998039879,557.7372641682348,298.25864372999877,-43.660470597448345,1032.4820462266869,0.5814148137368197,68.73432138747415,-104.7378507297322,31.041329378422972,-22.802930310547353,41.47897472343967,2218.9821015653392,29.24237108088832,Cloudy
2024-07-15 12:12:49.740018,30211.875982890317,546.2571720776931,154.55344618566002,-49.06166797280786,1027.0934157089962,0.45075269540796126,70.0094167965677,64.63560096819813,86.54993767225488,25.597327315377925,227.08474429588935,2008.815002935323,68.5584228986076,Cloudy
2024-07-15 12:12:50.740018,28909.459842357654,499.4328994753945,193.28679563380717,-51.34338345795927,1016.2073864226328,0.5496022118769911,-53.07444486980709,27.13437730710467,154.56533988850208,-12.828280990082192,86.55317747177584,2116.343230189855,75.29284532899997,Cloudy
2024-07-15 12:12:51.740018,29218.807807979538,440.0778906829519,158.43150029742446,-52.89755475497442,1018.7847914504375,0.7689381673975771,-21.239553224029123,-101.27185350583339,174.02317118608318,63.376548328786924,284.30111491398435,2110.211789264048,15.823842789942544,Clear
2024-07-15 12:12:52.740018,30130.536485650435,513.269236180872,142.34680797968528,-51.90311532399362,1013.1466051649327,0.6893480406014265,-0.36517528677882183,-78.45028904263447,-47.058457822198136,20.827881626065263,48.20941048405783,2167.29719675687,8.308740711483132,Stormy
2024-07-15 12:12:53.740018,29216.304698475073,426.24969320386685,263.324555977193,-51.15687372026858,1010.6644875040653,0.6050559124150743,54.80569755511786,-121.9305268637662,-57.06862309771223,-88.81195146000479,62.16223019943775,1797.347629795076,85.32913873582955,Clear
2024-07-15 12:12:54.740018,30480.08116621974,491.0703749335159,136.25187907237702,-49.98562239017761,1009.0843455662068,0.492364461681504,75.07143804050045,73.0383591656379,91.32347675872074,-76.9688011688392,93.94375091963477,2376.841253015594,88.8471232964629,Clear
2024-07-15 12:12:55.740018,30416.773266864046,478.60557007816703,111.21944622552097,-55.54076878797922,1002.7409292678567,0.43525687744505465,-19.278633244922474,-49.53123661580375,-50.95529723729274,47.51976815392251,148.90835647048755,1976.3385326866007,46.501909268004916,Cloudy
2024-07-15 12:12:56.740018,31518.566397470262,479.6444345052891,26.09332207433496,-46.760317338712206,1015.6385275909985,0.6210105999425719,42.73197311778017,41.2242961622905,167.30744992534693,13.17021678890913,49.24952765009244,2330.6466777478986,95.92849361204115,Cloudy
2024-07-15 12:12:57.740018,29655.932677351866,557.6983429411368,128.5322705112383,-51.59176936146172,1019.6883560028031,0.4861107639065509,49.59840658594294,174.57285450833217,-177.71664618886246,7.1188850125286365,251.11549253410985,2096.417996549321,47.91992704907082,Stormy
2024-07-15 12:12:58.740018,29726.68894352638,574.5018297159407,102.37139409538116,-45.82115495785277,1014.2086660329369,0.5412687500864514,24.22105157902392,34.54688376538408,132.64142140886406,24.60702245988898,282.34993298639546,2180.6949530072525,8.758906717830195,Clear
2024-07-15 12:12:59.740018,30748.470217624938,552.5469637223624,42.85696752413519,-51.01860090214261,1003.8836671605729,0.5142787246067737,77.90807332266297,-28.70994709113134,36.06664742515164,-44.65408645705664,220.75877763318644,2181.1453865782896,51.95652049495653,Stormy
2024-07-15 12:13:00.740018,31588.408408355026,529.9132098787973,345.5602876487017,-41.14989687801845,980.8222962868222,0.4291075919907814,-80.09650606094453,-128.90638780468709,119.46686749313966,12.13325292137202,186.10708202111147,1795.1667305204833,67.43382232636559,Cloudy
2024-07-15 12:13:01.740018,28318.941283061544,448.41383062532236,249.5536024477881,-51.78461820698652,1010.3357858196591,0.49607305572042293,6.549797708038625,-128.0891463359709,85.98350404989566,-77.62476811070188,301.84158445208277,2162.511564019085,40.71217422640016,Clear
2024-07-15 12:13:02.740018,30568.97680215006,474.0769975129464,8.889491369312598,-53.82166006872686,1034.9575287904554,0.28836469642585877,38.882153866374495,175.44608921746396,47.39077936184802,-43.85945895946183,109.50444583724644,1889.0354032912842,7.408376113141579,Cloudy
2024-07-15 12:13:03.740018,30426.267340865743,476.40739855126765,88.99121102845726,-39.69563763919834,1005.1348953262723,0.3620189477125675,-23.339011925867396,133.03453014691257,178.38975308638965,-74.50599587821591,116.61591769001112,2255.0466456430177,76.78786182202563,Clear
2024-07-15 12:13:04.740018,28573.09199365699,491.6504639706211,317.6440070746197,-42.06794237080018,1017.0927047149295,0.48584473698924113,73.48846659464814,167.65651568222984,96.92993391429064,32.49212460052445,12.388986232414876,1980.3026259039548,71.15687223329445,Cloudy
2024-07-15 12:13:05.740018,29516.300066485477,446.911697828997,51.875358022845404,-54.56515611311862,1006.1199460349667,0.5388905197073531,42.23463358394025,-122.10719778791231,89.96417788833338,-82.15871190233283,82.2080104780999,1870.0270748001644,73.92673924227132,Stormy
2024-07-15 12:13:06.740018,30986.641006268746,504.3202330208084,301.59307368976914,-41.13351799508248,1031.3066996909001,0.452526544240496,-33.49411084404714,103.83234514244214,68.02375040809233,42.837554529497936,55.24075164380697,1983.0897646562316,95.14150261558645,Stormy
2024-07-15 12:13:07.740018,29828.33224908525,481.9617572586498,242.74160874683898,-44.2819176003336,1022.8908044347146,0.38611036264045384,-34.570285448582744,119.52731796644196,35.93718443196991,-54.295199407372834,39.399137331204486,2215.0899964773953,75.58999450877211,Clear
2024-07-15 12:13:08.740018,31915.69835413361,528.5803891750903,327.67334581056025,-50.86441147532434,1020.4791409028021,0.5161778467923057,82.49373895395084,46.57806043545796,6.193190427116491,-80.36194053424381,347.6107283350867,2140.529816337108,74.29103778637538,Cloudy
2024-07-15 12:13:09.740018,30660.96878780502,464.40130685898686,13.529317008848473,-47.86698917151723,1020.1185360550168,0.4490845892430585,39.724015839847596,-112.52436250305061,-81.38001022771304,1.6262869645341311,246.7051024981158,1803.7719923063084,6.146144927170171,Clear
2024-07-15 12:13:10.740018,31294.340189027724,528.2956637074558,37.96539348405533,-52.38132579461069,1018.5904039150989,0.503526597796054,-46.660882294060336,-42.17261241213549,-149.68132414684763,45.39272264700094,343.0715307324416,2046.0915973027818,67.16673354784952,Clear
2024-07-15 12:13:11.740018,29864.779468785622,513.5955039458765,62.86808670453358,-55.32703459976078,999.9839696334068,0.39730268241659195,-40.669275851490895,20.499439931750914,29.382319990649194,-62.75635631438654,94.04103974858936,2053.5728296128914,61.735443632667916,Cloudy
2024-07-15 12:13:12.740018,30051.034725578294,438.0797572113862,298.73518835094904,-54.662063641291596,1014.0208777619006,0.5223644228693469,64.69320296456254,55.200555132621616,-94.505130127881,-49.133262999739024,340.3749012321209,2073.5777919150123,41.46609938347442,Stormy
2024-07-15 12:13:13.740018,29938.292870771627,545.4930999997825,254.6978589416142,-46.09081922145427,1009.6099552071464,0.42715394572801857,39.55010568228184,116.13210617789025,-173.1999501673728,-16.57144490184831,33.551018351028794,1683.3382169449237,85.44842546568398,Stormy
2024-07-15 12:13:14.740018,29289.69745259951,432.17078015440217,353.89980284639074,-45.70406637682839,1019.5016796826161,0.3509314729215943,-57.86280355449021,-117.22551417715415,10.034464700331057,-68.02264047008211,304.2112948704019,1805.7876053783932,0.806663841810662,Cloudy
2024-07-15 12:13:15.740018,29379.905804796133,548.0560978627794,111.3954793466934,-47.14321415570078,1008.0303434754977,0.5624141273263348,29.82549105769222,-3.712800755119815,-159.0463512123302,35.72474741688703,324.11346108482593,2303.149104630547,92.85405533948753,Cloudy
2024-07-15 12:13:16.740018,29311.549787643024,571.0807566325004,304.26745571419957,-48.091059584647034,1021.3258461772504,0.5193386445118413,67.47561978223357,62.25646826223917,-41.20384749398522,65.89562488056626,65.68825677131545,2156.6562563830535,57.0248078032047,Clear
2024-07-15 12:13:17.740018,29451.9919707535,495.8622018036299,261.6070733226365,-42.7264691080635,988.2246153987215,0.5899534020422192,7.9035537103540605,-48.97606425894239,-86.12955106558371,44.409457792360115,154.9372659857099,1923.4888676355108,51.8540301943689,Stormy
2024-07-15 12:13:18.740018,29174.367771180085,512.2198902604703,66.45601326688659,-52.15920139702008,1009.9137826781196,0.33320080761313375,19.401322911051523,-151.18217812699874,-49.635297603533246,13.118348805146468,78.93261238655106,1825.9951950579223,5.423172425476885,Clear
2024-07-15 12:13:19.740018,29392.30012321332,541.9012602537725,121.92111025050278,-57.36370946698682,1027.0788010614033,0.5271914218844536,-33.98619403343037,-51.59414205530686,-22.898387019286957,-56.898760706191865,129.434981942869,2189.187918073332,50.1898742999635,Stormy
2024-07-15 12:13:20.740018,31351.877273435683,465.9020846834578,297.3884513906336,-46.070924569113544,1012.9864066677005,0.4114274374559262,-68.08611199076846,37.856488912565,39.19046385766367,-37.619960952870365,12.290298827647085,2081.752680366993,24.873234674504552,Clear
2024-07-15 12:13:21.740018,31516.331061877892,524.5477832874162,116.84193651493547,-54.9092201781276,1015.6101747483909,0.4283675387592144,-66.18414400176275,117.23249178937726,63.65761644982612,-9.271251046753946,138.24717881200598,1798.9587680260847,83.96740302367908,Stormy
2024-07-15 12:13:22.740018,30450.301828362037,545.6122546252532,1.1143121086873586,-48.59924204802597,999.314294622622,0.271738345355422,-53.341293136779775,-48.97988025853462,-41.57920523414873,-6.639960848412542,77.25659281272355,1744.1631215427717,19.115316859252275,Stormy
2024-07-15 12:13:23.740018,30601.176155455712,507.33409130233775,85.83712668836742,-48.568673932758394,1016.7074984197893,0.3229362993344703,-23.869402853047774,-7.809647973672355,124.88495564717306,-28.003300961638672,146.7711158937427,2116.791494156547,90.71372773735453,Stormy
2024-07-15 12:13:24.740018,29671.139689191717,353.0723261580428,3.361374551211642,-51.24185076393061,1001.570722734639,0.4681406747875505,23.13490965472181,-176.00707950672987,86.95952846169416,-41.496895781962294,325.0766800753352,1608.9692150341093,43.26688898637464,Clear
2024-07-15 12:13:25.740018,29572.22348221138,489.3641623444301,56.662055549423165,-53.67283053285531,1009.9204153369612,0.4983331033353876,-22.850234642207795,149.9806653825769,-152.78859769544536,85.22700558483419,46.02365084433493,1591.9591376612198,73.73752207827702,Clear
2024-07-15 12:13:26.740018,30071.02806937526,445.57953257170095,104.63585757658926,-62.45321898903386,1013.3612300621485,0.415310891912417,16.040375213210723,52.400824113325456,134.5768729991476,69.22489789075641,62.185351909397454,1954.5020819399733,67.83960480280827,Stormy
2024-07-15 12:13:27.740018,31385.92398838426,509.36848488059974,259.12289157840223,-37.90412451422876,1007.5094495607332,0.5102443135991414,-13.884838437183191,-62.791055544020594,85.47153750538257,29.48481498610839,219.63208666052464,1974.684503827013,63.800963331166635,Clear
2024-07-15 12:13:28.740018,30809.192983910463,399.9104236471936,88.09474487360941,-53.98477813174586,1034.8866740351118,0.5162319301491357,-77.78871027984965,56.77779627758645,69.21414068964341,45.91418539513893,237.48314146905,1936.4044300635833,96.43648687525838,Cloudy
2024-07-15 12:13:29.740018,29151.84827121804,517.1327969575065,245.23036800734164,-57.586566433092315,1010.3501577632924,0.5571400572239035,67.79140658678429,-17.25428474155578,172.6979880540856,-21.14172060824974,52.807578646275005,1706.4731191868746,58.05939899991244,Stormy
2024-07-15 12:13:30.740018,30326.266564578447,445.9107736249312,182.37483886909894,-49.62293816676718,1008.1254671973215,0.4144475926252741,57.80700735996953,80.08825044819446,138.21888168216617,-25.404317617945082,208.26857906044373,1699.273370370956,98.70879460564362,Stormy
2024-07-15 12:13:31.740018,31667.401965488447,540.3150594267455,190.11609373779356,-48.316174861285454,1016.2244767354546,0.5992909368672378,2.3875025655242013,-21.72237227533992,14.02729721326358,-42.68983698904274,336.39816858071407,1991.451120567388,33.432537639988624,Cloudy
2024-07-15 12:13:32.740018,30396.431462182525,576.7198100073056,5.736775916808292,-51.768174719453384,996.8758058146041,0.4662021496169381,88.0314789952283,-47.54866919354848,83.15710106626989,-3.3441607990549898,284.4204718159404,1647.8119835596228,13.909773107922508,Cloudy
2024-07-15 12:13:33.740018,28561.72788315785,562.2505312523564,70.20870499071276,-43.18888244490861,1010.483868689964,0.5010589827626738,-41.40685593490057,107.17678492574964,73.95194357211042,63.91687882880305,178.16243899232717,1892.18778068311,39.84458057556799,Stormy
2024-07-15 12:13:34.740018,30469.15763625423,488.93216457356544,96.42788545734115,-47.16410091721401,1021.0676855144987,0.5168654169812666,47.12406317874235,-129.06802120344395,-161.76785985876907,63.395100336520585,319.3560093316191,1877.6802703113842,97.10324630394848,Cloudy
2024-07-15 12:13:35.740018,29744.321525109255,561.8198538336322,145.44889337690407,-54.105308155375,1009.4121023877022,0.47203916451919886,76.533508366469,-108.86759976643758,61.82077561712333,-58.610937662053296,135.27086210541947,2018.196487059652,15.718665106492047,Clear
2024-07-15 12:13:36.740018,31712.649045619346,503.3696762386181,288.41112995878404,-60.456408096112526,1028.29661263602,0.4756970051805186,-64.01779423315219,102.7001220515047,63.25135163629366,-12.80342284195207,230.4207249751063,2286.0813998210638,41.71379417192834,Clear
2024-07-15 12:13:37.740018,31086.36342559013,529.1359808025367,331.0643400483652,-49.7180827162931,988.3159049421861,0.4339109756973309,-38.735447129126705,-83.72272044831692,30.464390622222822,53.605703519251875,1.777946900479197,1767.1555948115242,98.99880541626082,Cloudy
2024-07-15 12:13:38.740018,29332.021457787498,587.2926915470731,225.65846837553087,-52.260671011780694,999.6732911614886,0.36372095386230113,-52.490134277399484,136.9422309681613,-45.958066237968666,-7.657006130382271,239.08666897727477,2037.2479110306804,98.17439112018693,Stormy
2024-07-15 12:13:39.740018,30334.000069818943,509.49709562407537,29.43650745450489,-48.39015584382486,1012.0366251734075,0.25499411347582335,-82.42941303917839,128.09419990550708,153.91278167134823,12.919148864422496,227.16562938540432,2112.369921206639,60.700137190930484,Clear
2024-07-15 12:13:40.740018,29227.5000509539,490.1260015690532,72.06573886435591,-45.41673385703236,1010.7148010360811,0.6282049904721365,50.177412741544146,-33.112506914773576,-164.73952850811673,-62.75479041116444,225.94639178974654,1589.1232449845304,28.443163936646787,Clear
2024-07-15 12:13:41.740018,29427.68751569736,458.56612417928335,229.36032823558514,-45.595482562545605,1001.0843732336828,0.46676566884306425,35.979815889843294,-25.91228632631811,23.00194756202532,9.402980721732106,249.4874048736891,1916.5702592977252,46.344211735645715,Cloudy
2024-07-15 12:13:42.740018,29138.64589237709,464.2227706269013,262.9918941214164,-57.08476503567498,1010.2496630172349,0.5029891256577138,43.29466583817896,-116.11167439768641,-53.86964099618916,-44.41720819981179,333.8688162402854,2177.7906144762255,8.980977790413391,Stormy
2024-07-15 12:13:43.740018,29175.944341707764,447.56152856320534,151.57854925127532,-49.463468782662474,1011.1672923969691,0.4130727053288929,-44.36524237970978,68.05253346449192,137.07978020236425,-73.51936623734682,83.7745227878617,1964.8504920688142,40.732902732876376,Clear
2024-07-15 12:13:44.740018,31042.675291803414,461.2879794970683,281.14752496793903,-43.72486336842432,1001.8814225533401,0.3913708134488944,49.511389050987106,117.43217968917111,166.57443022301425,59.950524926516124,80.64274120726337,2163.648118328766,39.73302266220375,Cloudy
2024-07-15 12:13:45.740018,30927.78007950805,500.09402198937113,352.9312518493096,-50.16423263135391,1007.5685383394713,0.5203204454540029,-9.27372284908327,87.56326221853527,104.41755440218566,22.323847531429834,221.33850752153086,2134.8233731759697,83.44356700488824,Stormy
2024-07-15 12:13:46.740018,29041.16666172532,495.10400223853685,336.05022271776875,-50.251603312825004,999.6003799424332,0.3684995991635195,54.06460814839056,-108.61051809965292,-42.84833763176013,5.1630993339497735,159.70180715874707,1981.5606698464346,37.94177792811513,Stormy
2024-07-15 12:13:47.740018,28964.19544530369,521.9537000924375,271.814814639957,-54.348855737260735,1006.2432968650863,0.5800259452744341,-47.33716876366331,161.93849907107773,-22.082461965198718,75.15439345547088,143.00805349775445,1567.7251229547376,4.010868870418038,Clear
2024-07-15 12:13:48.740018,30182.156864955283,473.56497684474203,17.508968836550377,-55.95445733541989,1005.5145570022753,0.35962311299422367,16.766165116559606,34.9687668091004,32.774971302079535,-86.22966832942795,263.73236255875827,1730.7043573473363,40.155714151868835,Stormy
2024-07-15 12:13:49.740018,31559.22473753803,590.3723360483148,332.5451622730474,-49.16648365928518,999.1581037382415,0.45027005545540516,61.97116022667089,109.37913668846693,37.04644865160927,6.346828169426942,28.277317831413026,2210.488861303726,1.4635900211796837,Cloudy
2024-07-15 12:13:50.740018,30958.02094538114,527.1703173692754,320.283700589454,-51.77597189828159,1001.2897890950175,0.5536154105203354,31.04164835511523,-159.79650583246706,-85.53781249981888,-37.41351819498304,108.94925910315669,1908.8058500934683,93.99878904752265,Cloudy
2024-07-15 12:13:51.740018,31729.439940864548,418.2615267380529,352.0102165186067,-48.68164274880567,1026.592923182561,0.3892225151166233,2.117265984710258,-96.43461918644714,-95.58381228627081,-68.03007206068798,39.548025104888865,1931.3474621393154,94.00693528563485,Stormy
2024-07-15 12:13:52.740018,31244.373420289594,555.1987679933367,248.12544316365546,-54.23098094493263,1003.2100867128491,0.46565524421764576,-64.23264326636047,25.311794865790006,49.55283605711759,-59.09624771129012,184.5797322211369,2224.830684555007,54.50576339244545,Stormy
2024-07-15 12:13:53.740018,30658.986085080312,508.6125559790426,16.740022439172513,-50.7073811507691,998.3393052161452,0.5541205033001593,22.355182450346135,1.7982065899710733,118.24248899508996,75.7703817129501,325.34348828254804,1835.722792127413,84.7855951436297,Clear
2024-07-15 12:13:54.740018,31214.314341062716,530.4565150139356,146.79483222919876,-48.94854108012571,1015.5246855113068,0.668641935052311,-65.73353661609666,38.82434627348971,-44.31483079254443,29.30496766336249,19.130737241080688,2296.138049572117,43.440089608509794,Stormy
2024-07-15 12:13:55.740018,29962.960958656215,522.3405705116434,323.07230139435273,-55.323213190197265,1015.2996069125952,0.3874727071844928,22.49269177957551,-22.424558689956285,29.96659789460338,3.514725065526477,280.5812229939587,2337.144650505668,57.44605470858072,Stormy
2024-07-15 12:13:56.740018,29349.703171142995,457.5859264099139,155.64329474589232,-53.211266264976935,1022.7887652786393,0.537353799678091,32.745581752795545,-165.06497389033302,-102.6045934533077,89.11008433346362,164.62783558590232,2101.8222802823743,22.929727775545217,Cloudy
2024-07-15 12:13:57.740018,12404.380464327862,251.75245281658752,245.6607176492008,-55.496362337680516,992.9751913890767,0.1527345707740409,58.53248675418328,62.632752055244595,-60.41587545046207,-56.6674456912262,91.59116559063033,1645.1533327405484,14.49796873939302,Stormy
2024-07-15 12:13:58.740018,30905.825402024926,410.6530123432546,168.9910075757657,-53.06721087060932,1005.0830047447006,0.3995098773545747,60.04021583344928,79.6092654810144,-119.88443289828847,-87.51352080710116,3.232864742128374,2192.2690075847154,28.837105827219577,Stormy
2024-07-15 12:13:59.740018,29455.010541963435,481.1664623242513,6.2547810041571905,-42.016182706441676,1009.7570348916548,0.5154670036802862,-22.727690409331174,-29.662363099839382,62.540047984571146,53.57264228921866,298.21358760848597,2147.746796546928,10.810132489980695,Stormy
2024-07-15 12:14:00.740018,29317.423733327232,534.9624518307721,67.06946525883063,-50.45508755324121,1017.1822288153533,0.5740455994370974,17.902452854349235,-80.83264040597858,-69.9758334950277,39.35171641885347,313.9517749829763,1774.6497303996991,6.870540074227193,Stormy
2024-07-15 12:14:01.740018,29345.345533305295,531.7274610930597,129.49181994915494,-50.62418406380709,1015.569610742935,0.5551379883387062,-33.30365760913432,123.80333372764983,170.41804278107378,21.531339482706628,212.80659022395005,2125.6430199684714,87.12501719238794,Clear
2024-07-15 12:14:02.740018,29975.36789505349,546.0747580604173,241.24987963898965,-49.20466451996823,1016.026636691601,0.6652172038459521,1.9741734626679062,15.35136141076893,157.4280330198718,69.13315686630409,167.62354393153674,2170.10281706881,70.51663337256575,Clear
2024-07-15 12:14:03.740018,30234.263162363477,476.4356021060332,166.37144819666094,-40.82655658372511,1021.9495455348724,0.5183161215689095,-82.1697978200573,6.792088787874832,20.733322890631456,59.059721754035195,128.37981084307782,1967.3698339799598,13.728417114378132,Clear
2024-07-15 12:14:04.740018,29283.509629749806,410.968212843703,113.58220518528822,-43.46786327964882,1015.0782867977726,0.5600068093992485,34.96530891501557,83.92888627942506,-49.355254178037086,-16.4142123721592,342.39429273582414,1976.8113573520882,47.514910037500776,Cloudy
2024-07-15 12:14:05.740018,29535.23880634379,491.24601314471363,119.16282807680632,-55.187300897598156,1012.1658458487005,0.5693517768255679,45.708629475127736,-76.59488600757358,132.3701489962313,15.278809174021603,222.48775510108413,2335.590861809203,65.28673297248386,Clear
2024-07-15 12:14:06.740018,28912.778326203297,474.40247013047014,315.2320183040328,-53.59976676829365,1034.5597008624636,0.4969561348824552,-79.28404548458582,-66.13651580382742,-120.02633069074017,-45.13569429956379,310.1927621914242,2182.496456801867,97.00321437809167,Cloudy
2024-07-15 12:14:07.740018,31061.113101469015,466.366277400553,37.7844064480057,-50.95325937799181,1011.7372937019104,0.4121770147228916,-56.733082332188395,-45.50050522674431,-69.61675084478111,-23.30359237144944,318.6461373788165,2026.2089776910993,19.802695199339972,Stormy
2024-07-15 12:14:08.740018,31170.67516312062,519.0913480294118,335.03905584095986,-55.731968981389706,1019.6610632900341,0.5173086820822757,-38.22681045638229,42.98052441773399,116.0310748145381,66.66067361971511,62.79508059735606,2237.0320115631457,52.20390465878859,Stormy
2024-07-15 12:14:09.740018,30187.175918325425,525.2365404409458,13.45189153128131,-49.88478772450418,1001.477002790521,0.3323236827696201,27.366976911673163,-76.98242925990047,-176.88278956570662,63.46235594946717,173.02739290991556,1869.0220249042363,96.73589312690308,Clear
2024-07-15 12:14:10.740018,31221.4128593884,607.2590168507144,27.97035233698541,-52.601006688422075,1003.3010536895792,0.5732239443896897,80.46778900974431,-156.42621918253903,84.55137212984283,51.37441672603538,241.0162563378177,1733.335737616311,65.59109920475802,Cloudy
2024-07-15 12:14:11.740018,27812.201501004085,513.9320386543944,202.4326955455018,-56.72718958064577,1017.8974231143994,0.37619767844756247,10.916668260896415,100.04131294101734,-86.0854073363029,57.62852787541456,117.68572498895946,1835.3402784868206,15.912455458879194,Clear
2024-07-15 12:14:12.740018,30701.610317107024,563.8358939858011,274.2981422180453,-47.92816982356585,1010.198563769599,0.45802006768391346,13.139951368853147,66.15919934688841,56.24542591909477,-6.894513809717111,233.77638194878074,2177.973037863254,25.75397118640329,Cloudy
2024-07-15 12:14:13.740018,31938.466188255028,463.7732697225134,320.0667033129109,-53.00775737351183,1009.6195574790017,0.5882012447877563,43.05634948758001,-37.56499126483837,68.3698211231349,-57.0132962512473,168.70595068201263,2279.2289836234136,52.84797997251871,Cloudy
2024-07-15 12:14:14.740018,29888.42691977419,590.27116613563,213.10480122890866,-57.656420735083486,993.7224758304781,0.435812858809038,17.92016395835465,8.157282187724519,-158.33098681167482,71.53089558610642,339.72973524826807,2029.8874282364184,31.407150986996534,Cloudy
2024-07-15 12:14:15.740018,29124.534850739754,498.0796239529157,17.563685009971415,-41.92251438506392,1005.5080438115508,0.4665741597483358,-52.70283551293042,123.43023363696483,-137.01143985943435,22.169618583497353,220.48651722989877,1650.9686184214943,13.234208692846906,Cloudy
2024-07-15 12:14:16.740018,30065.65824187716,480.3599051773391,86.93165015324304,-46.149417204825674,1013.8200219952998,0.6488723782600951,7.400899744063366,-110.80978634850818,129.32180722005415,-39.67157985982582,257.368099155937,2066.926876938824,88.51188756999173,Stormy
2024-07-15 12:14:17.740018,29451.656866474157,537.4158275688235,126.39008468084073,-47.700574510591736,1003.0837254160213,0.4211117081377148,-73.46240011753432,141.8782238519176,-78.42203752009337,-61.607535235284956,238.49000200349357,2169.1869651824118,54.15016165911576,Stormy
2024-07-15 12:14:18.740018,30096.34723514566,421.76030506412616,266.59810997743864,-53.51486086411732,1005.0372837547649,0.4783087342073647,51.7311568553088,150.91471761657272,-106.15768762956982,33.696020887502655,199.5335488849133,1745.7568799694807,15.231668508342688,Cloudy
2024-07-15 12:14:19.740018,30157.17407392291,465.1104430312611,295.20771829354356,-52.96986681665813,1017.1525217698796,0.42002412446434817,47.10310955488498,-169.49491842324232,-18.12061455827964,73.37792333343259,217.96491117651104,2114.3618245593043,57.110673070548124,Cloudy
2024-07-15 12:14:20.740018,28613.749704014994,467.8752310196377,175.51325520624752,-41.01599322201676,1008.6919316584921,0.5605695314091048,-60.51152230789717,-102.33607611778268,-148.8908854354163,-86.15032531914926,81.33752947435528,1839.3257726560757,49.35176189150532,Cloudy
2024-07-15 12:14:21.740018,30247.89654770731,528.5467022203734,122.67606544662644,-49.985864220513875,1023.1041618726108,0.4963391673360869,19.641494424171498,15.939409938609828,-50.96193483317862,-66.01972810050738,92.669841145936,2166.994607271761,29.372693578930388,Clear
2024-07-15 12:14:22.740018,30233.24542070959,517.1463988295069,244.9230965238506,-52.55155958171334,1001.0920450588352,0.6154518595522019,-84.96457690175065,71.02922004761851,-71.34994068850736,-2.1591880531212126,128.42819309102146,2030.5858624915409,61.32626013376522,Stormy
2024-07-15 12:14:23.740018,30522.339613811524,553.7785527401007,17.518450281826322,-52.61329568821438,1021.2408849494911,0.6628025287069408,-58.206431569613514,65.31280317161335,114.09427543232255,-9.741351723244918,113.23896333794154,2011.5083862924555,80.35384327189293,Cloudy
2024-07-15 12:14:24.740018,29679.204563969986,543.1249503373218,253.6114409448757,-55.722411987607835,1016.2060686370205,0.39639470335674976,-1.2264918233137365,60.009437249954885,155.3740768237103,-75.68860639651598,145.7412871326122,1949.6382879240316,58.523053214538,Clear
2024-07-15 12:14:25.740018,30254.667675182274,446.8905220658078,288.7255111768786,-53.254215028925884,1004.1158399010899,0.6552045608909712,43.31570695304208,-148.4446232140428,131.49808126344954,-39.417883135888474,333.1533099887035,1835.3518309248277,46.35220854337967,Cloudy
2024-07-15 12:14:26.740018,28177.256511482447,526.9783784644507,313.81412834847475,-43.20292104689938,1025.818387230895,0.49852497389516276,-44.50513637187319,46.18932729491084,155.34356688537542,-72.78212919927827,96.2037436445381,1939.4013201206847,2.7432296651230925,Stormy
2024-07-15 12:14:27.740018,29957.890225243773,427.4187161187638,68.22328781736428,-57.01734317382707,1008.2971782748772,0.19338712334406777,19.769682012769792,-109.47066685424045,-101.875842683657,53.762932692583405,49.759901052500815,2202.0920841194957,6.683494362115427,Clear
2024-07-15 12:14:28.740018,28721.620036981043,508.0162730182858,338.80028501800854,-41.279388733973725,1008.2714850672301,0.5065894057636401,60.86617414156666,49.15002838913401,92.51772162290723,-61.79260483249746,298.51156925744255,1867.0945311612713,9.665764147327815,Clear
2024-07-15 12:14:29.740018,29180.39365618885,499.92825677868126,228.07494941215572,-54.67072610229148,1003.6951044591677,0.44093675403751537,-44.859715352917874,124.2283327319364,150.61771277285158,15.050906660333922,296.49495741232073,2209.665206860128,19.361150547163742,Clear
2024-07-15 12:14:30.740018,14700.244749860482,526.6176264396664,198.84268629683493,-3.9654331814072634,959.0379766918525,0.24521388850986836,80.11071655730674,73.23838861530407,-134.99609077340335,-20.634263001473386,337.62706796797096,1035.0796620893393,72.12952358641286,Stormy
2024-07-15 12:14:31.740018,29554.234348392405,523.2398072232683,45.655479885171935,-51.72940827603571,1021.1231464440003,0.5167614745820052,55.190172009484826,-77.74575565890522,32.97167277595932,57.83903858219719,155.32301412959865,2214.4976501137608,96.40799734290792,Cloudy
2024-07-15 12:14:32.740018,27987.010698298705,437.5735812956598,156.54711540897804,-53.10451079967421,1019.9862060141775,0.5652834604608321,-24.61920508928722,149.36887636260116,-36.89575376899944,62.53017334687448,229.31106343682615,1905.498653312429,25.65440174605831,Clear
2024-07-15 12:14:33.740018,11902.210863252756,389.9878512507769,120.03988446154455,-47.137183954559376,967.6425340073621,0.5907270381560833,-85.09006492512404,61.102663965158854,-148.35847401266798,-73.93927229194661,20.963540182546055,1759.968428339421,94.35063317930457,Stormy
2024-07-15 12:14:34.740018,30177.198942847648,474.96446054715426,312.7610146114539,-57.99097643515734,1014.036527586167,0.6269703893762101,-7.935574445786742,-158.96283502516627,90.85607297108618,-67.65078962994711,163.2990001007609,2164.735977387631,1.857275291929239,Stormy
2024-07-15 12:14:35.740018,29447.272252054827,523.0581123234059,214.4685137985352,-61.90541241284019,1008.0568480278115,0.5528719570312193,1.8419156043052993,90.41110209782278,-24.846649173518443,-89.58046556021563,123.50684842022599,2288.554966830863,63.98016643944998,Stormy
2024-07-15 12:14:36.740018,29929.37564110674,524.7038879304254,199.3041410893851,-41.59844459918323,1007.9059355987814,0.47551373579580725,-52.456942284703786,-5.338954525315501,-12.528287737763804,-72.98716833833946,179.89866163138498,2345.2829152176664,29.405832876145066,Cloudy
2024-07-15 12:14:37.740018,29720.6723024659,440.7520535634744,241.30617030418128,-50.22532043851933,1006.8307644104166,0.31615745625091396,-69.55501888466654,-24.936254588172403,152.638026745817,-41.42943157967097,1.0279775297832527,2060.318162294736,44.46690882216786,Cloudy
2024-07-15 12:14:38.740018,32111.075651675143,476.3784259552036,336.2589218190867,-49.875351141499124,1010.4072270725528,0.6536218472949769,-0.40148191192497507,-59.52152113320048,10.856009847806916,44.716206023875145,277.14338362149243,1652.8019480677856,22.784444993794175,Stormy
2024-07-15 12:14:39.740018,29318.48879333811,560.3434167012006,229.56799256465922,-57.14401659524103,1019.08583682461,0.6471571785966002,-65.32967766567488,79.3091884308621,-46.026439279727356,-68.92056796713743,7.377029828726616,1860.7981794286611,25.73408669402276,Cloudy
2024-07-15 12:14:40.740018,30537.53632441012,493.4446286505626,355.1394196076315,-50.40459939591636,1018.1205394693228,0.4601457853386417,-73.22264161523698,-137.49033272655808,170.6595188887049,-25.030949247494334,215.6610263544461,2134.7203542894326,90.20215241536896,Clear
2024-07-15 12:14:41.740018,30115.801970791603,467.3611672493329,256.3107531236648,-45.365365447781876,1013.30593176141,0.377211969058721,-4.327909794027946,-164.12005661687266,-68.81779982354419,78.50982252013551,207.19785538472038,2023.6409306478859,50.36794091783441,Clear
2024-07-15 12:14:42.740018,30735.20073331803,562.6985389982739,105.04598806353383,-45.381929270352984,1000.7196711949709,0.451686996788145,-17.03784913240112,-24.704775252725028,19.970388138862916,-62.969113614333935,1.0155983743454078,2015.1900959636537,22.540727829690844,Cloudy
2024-07-15 12:14:43.740018,28531.138245592283,577.2092083127227,45.20009399120065,-64.83816879488771,1013.101335635071,0.603312462122612,21.432328383598815,-10.450489744192765,145.31997316920916,-44.12465397024945,337.4952988118918,1574.4097736471774,42.30234126073877,Clear
2024-07-15 12:14:44.740018,29257.717409558067,487.56711499371403,85.76307188283978,-50.66165984606848,1026.305522964289,0.4286318150697555,-18.58202065583754,-138.8072619149434,162.97250125285257,4.199754741682099,129.1486983467838,1729.4845940769303,16.97413671927116,Clear
2024-07-15 12:14:45.740018,29450.87909458713,456.8795685593688,268.91966171219156,-51.14601644475319,1016.16677190027,0.4468515063246843,82.4209831205466,158.75263243117007,131.92425722350765,-83.80081725791462,301.62900007616327,2054.814848851713,92.59131189588307,Clear
2024-07-15 12:14:46.740018,32685.081538689832,530.9121207474683,189.71325027275498,-46.40065389365063,1018.2784684279678,0.6023400502896498,-4.5484373420034245,-138.6707321744832,166.2633917396189,-46.122278434998876,149.7487590682268,2315.3497340199074,26.042659138947364,Cloudy
2024-07-15 12:14:47.740018,30087.473312719703,571.9377692220318,44.982973179132046,-42.55482107015718,992.2087000794083,0.6981784948286253,20.115404793027423,43.42030194124405,43.279808555347586,-76.9209818802827,133.1964898400147,1664.9403826088346,74.0059366558603,Stormy
2024-07-15 12:14:48.740018,29456.385495757473,529.6352093084151,19.980084677232544,-41.839739542677606,1005.0850529960219,0.4295484716397241,82.67125856245627,-102.80674608199986,-44.20866442495307,-25.881430862655904,179.64599547548156,2319.9685074076633,66.84531471603529,Stormy
2024-07-15 12:14:49.740018,29626.642068889207,493.3356505140041,24.509257960658925,-42.75909625204791,1012.3021643341982,0.6003220735092121,-29.127603819113816,-45.29915427382835,55.76002571206965,13.144524144068086,252.32176139597232,1833.006891876851,20.29003951689512,Stormy
2024-07-15 12:14:50.740018,28978.441157159476,475.8575792793639,237.40515596076293,-45.771439773729085,1000.089838627692,0.5007630767822218,-72.28222956421317,-87.16156642388383,91.32565303911974,-18.39834515797051,49.57962895037161,2104.5055364034006,39.363212764423814,Clear
2024-07-15 12:14:51.740018,30689.704318162705,504.10305940059254,243.64774400050217,-51.194834534112324,1018.8189053222467,0.4605908606212701,78.65728000108896,-35.74566426538121,-80.19160825112348,51.836101133204124,347.7727134370356,1991.3455399241352,79.10688704913625,Cloudy
2024-07-15 12:14:52.740018,30469.58427375361,486.63588267782916,236.8875460911949,-52.77704713383947,1026.2472666038398,0.46254783640216013,-58.168094973304036,134.77320230304736,144.38784542635318,-63.54500323997026,326.58314127711793,1751.4369258399038,74.72075820002493,Clear
2024-07-15 12:14:53.740018,22581.74625972763,634.9375862982956,320.52734450343314,-51.07337133138507,1000.3391883847825,0.23273918243934494,-32.726778096202075,-88.40904258020521,132.45855667566752,-46.63287649330631,89.07932005065027,3014.532853100719,94.65129933576534,Stormy
2024-07-15 12:14:54.740018,30256.402691016752,487.14687549240466,292.0875047684714,-44.98165647135023,1015.4215169519061,0.3721142633588749,87.4745678705923,178.7830553163172,70.00014518695505,85.52223439384176,32.37547007300111,2037.0771879894946,92.00398487697021,Clear
2024-07-15 12:14:55.740018,27667.723878683042,485.60400852548764,101.85451615439479,-49.34074266232673,1023.2305109842926,0.5789488421730613,79.12085066145505,-33.222704685703576,75.89909704533738,2.0232006169960215,70.928188615864,1796.6551482077725,82.34419598103347,Stormy
2024-07-15 12:14:56.740018,29901.670951399457,478.82782574021866,49.34226143238901,-56.858264641730415,1001.2688721862218,0.5607098464865302,-82.56840038870641,-138.86967815375908,-130.61352116259812,-16.687436904918016,262.58203628679576,2161.8895800520254,66.4326037636648,Clear
2024-07-15 12:14:57.740018,30135.96536138307,479.02763296992595,170.33229974628432,-49.01187577485473,1027.5283762443644,0.5597075122139292,51.5769538052823,125.5537356837524,137.91300849196864,-38.802157831901035,359.1235416081809,2126.1989775728107,30.72284560976122,Clear
2024-07-15 12:14:58.740018,29031.58929095523,543.2571282758094,156.6140040512191,-47.71485637522565,989.8556285582351,0.5919111446822183,-22.71284083708055,67.575087983423,36.27268593322407,-34.06714338674154,8.824977165387779,2091.276443232736,65.11200520652503,Cloudy
2024-07-15 12:14:59.740018,30582.244915803603,504.45676188382123,337.26492520000244,-49.18445039558545,1006.4576471391689,0.40272639352821943,-52.241267428160015,109.27196215092277,81.80893235050297,-28.92567758847769,168.87639226750628,2045.219910422865,85.62719149437623,Stormy
2024-07-15 12:15:00.740018,29770.466935862398,487.03222652425177,137.45014725786356,-53.28437834578178,1014.777166451715,0.320876224984518,-47.7653437167107,74.0222034316701,-161.52062168004778,52.745667480881906,107.02038607964057,2019.4767161767297,78.85566304935114,Stormy
2024-07-15 12:15:01.740018,30491.74363634545,514.5536790604976,77.24011992139852,-52.53341267033501,1027.9833143490894,0.3864819972150312,-15.351688772564131,-64.1802607265922,154.12794237924714,42.42871516669325,291.236123212291,1860.7477116668815,37.971611832086694,Stormy
2024-07-15 12:15:02.740018,30075.026335304912,475.7839733625289,267.1307022516793,-53.037446510728124,1031.1404924585893,0.6179134083801625,61.2189893690593,13.5292272576215,-136.58008375628862,21.42315144418231,243.5283706349696,2049.9666821183355,4.950151362817046,Cloudy
2024-07-15 12:15:03.740018,29580.28025128689,534.5527014704217,69.44138842360093,-42.83453880355939,997.3056014826246,0.738572006914952,64.14534351221795,-53.023148389113075,-154.20053207224478,50.59199201153862,160.20357143935283,2149.2433529416276,49.31457304133316,Cloudy
2024-07-15 12:15:04.740018,29522.83875577982,527.6415592201882,329.1655864288362,-50.921109861118225,1019.4987102703286,0.5369695577042117,76.16114994935387,-135.91533671646494,-49.46426461512752,-10.587926629883114,347.82711213145063,1531.8086407350236,67.85989071034984,Clear
2024-07-15 12:15:05.740018,43774.643025223595,423.5214277000521,163.9864973527579,-48.45584970530276,906.3851865704662,0.5925426858455742,-59.67651164374378,-166.39149698634952,116.85880528152398,-78.2336929160895,112.89842049082277,2691.4775063815805,45.18358113498161,Stormy
2024-07-15 12:15:06.740018,24474.631446546486,340.3568779484664,149.42572904470225,-14.48227455421214,1000.5799977892025,0.8885359554197003,-63.482283801805735,-161.56072714502358,-163.835857247657,-51.362772540907116,91.56282841160588,3783.843323242152,70.43665565605045,Stormy
2024-07-15 12:15:07.740018,29840.433846664575,566.8391042307351,354.0239453295039,-38.95855230828616,1008.0768781537334,0.4812894380653093,63.63460629613658,172.57682197704486,-63.0348264983992,25.051103700965243,58.90183792459817,2056.701643704186,4.662543995161705,Cloudy
2024-07-15 12:15:08.740018,28265.59266244452,561.5744135300168,44.946859019693946,-53.587080770077385,1012.8447114900704,0.613201576640759,79.77360099404285,-128.13877091859888,7.653085712776459,-79.11161059497908,9.40517133473698,1923.8714044894562,62.01830261463984,Cloudy
2024-07-15 12:15:09.740018,31765.60494170529,441.183938677913,157.4582260798794,-45.58371111428679,1024.480335041136,0.4227565051218216,52.40672426251808,26.737030976503377,53.8096253514654,-23.50444909092927,351.4464688578493,2121.8047476233605,57.025309496641555,Cloudy
2024-07-15 12:15:10.740018,30946.69344167869,503.14827618635917,141.62911960652718,-44.241930520948166,1010.0842805151663,0.34023844577541473,-12.606021223962571,56.962661521479504,-153.92077031990496,39.199347713504466,258.57096869470814,2074.2319588593696,81.57117074729221,Clear
2024-07-15 12:15:11.740018,30104.44080768729,482.87608011572837,13.182506527910682,-46.45563947036324,1017.5870057792617,0.5679181125321442,-85.15206206731536,66.10779589257811,124.05098772351249,3.4361079794768443,268.83577587610665,2194.502959455801,87.44012330250789,Cloudy
2024-07-15 12:15:12.740018,29657.56594146234,429.49363147196885,73.42431020770137,-50.018559413653314,1013.7693381285484,0.5290067711710301,-11.26807411647404,-72.70438759724729,82.44607462927843,-52.98388790915748,179.6157515245713,1753.0944986715053,69.06306104605082,Cloudy
2024-07-15 12:15:13.740018,30297.514473159175,424.45227435035474,349.82906637826386,-46.89228159696715,1027.4010625531578,0.42860593110848055,-27.69500752788322,-78.77863943298038,121.53078187574886,-20.640792315682802,220.69228314901218,1793.8743636364188,17.954317132650733,Stormy
2024-07-15 12:15:14.740018,32036.69930590933,531.8439773405944,296.52186538706763,-62.068135646787695,1011.4995182971151,0.4581780645833563,-84.77672377212409,54.72022185930726,134.27946115359623,-48.22728866709659,156.50999555705974,1793.752054652598,64.89592197008027,Stormy
2024-07-15 12:15:15.740018,28262.55411415476,530.4724964458112,325.28781623465056,-54.2474376825467,1017.9576666211337,0.4717622904559634,-2.193809838646203,137.87388754161742,136.3376209259901,-16.15393043803229,65.15987329112099,2048.7386635572448,19.181099606557495,Clear
