Timestamp,Altitude,Speed,Heading,Temperature,Pressure,Vibration,Latitude,Longitude,Roll,Pitch,Yaw,Engine RPM,Fuel Level,Weather Conditions
2024-07-18 09:31:55.510406,29562.02324549894,564.8374269481181,17.367838218772896,-53.73178479029178,1026.274226392924,0.38204655171735047,-46.61991891576879,17.22092061202602,-93.93013984593968,41.866821690829056,349.5902373950117,2230.070777901926,57.418264384829484,Stormy
2024-07-18 09:31:56.510406,29411.50341246622,388.8173807932377,111.815843760025,-48.22722231312183,1017.2961760138603,0.5487030219486054,-47.41751686067882,167.42725477476375,114.06582994637506,0.1568400160682728,339.3732875161289,1755.1800906026053,18.271538357088303,Stormy
2024-07-18 09:31:57.510406,30326.50647036547,438.64897164849447,357.26746590961807,-41.83396062254094,1023.0338468838955,0.4684049627115479,38.33617690639102,-56.08370700746852,35.6331783349805,-43.7655772670803,263.65789254624093,2187.8904909180706,22.75475990707824,Stormy
2024-07-18 09:31:58.510406,29394.603939130087,508.3734117662918,330.3712424084883,-52.762738415073756,1007.8865616152216,0.5656403993679983,59.85602762817618,-103.38567687795732,-159.79499609228006,40.26808712953283,295.04078384776744,2213.9262722938165,82.92138737907712,Cloudy
2024-07-18 09:31:59.510406,28837.56883939501,447.7015223612061,182.11498886011265,-49.13091054686443,1020.428630133671,0.5282655225946297,-56.78796253907892,-50.29867414320444,-87.04586702370614,-4.647905114554092,294.83818514320063,1734.5167638439261,32.452498227135884,Clear
2024-07-18 09:32:00.510406,28873.79504103735,544.6279554852173,166.14690729856406,-51.08118660859174,1012.4816320741736,0.554552916267107,21.30263798092018,85.0478162679795,-156.04333164320877,8.215846220254747,314.96643360158686,2083.533336907605,28.582246879301863,Stormy
2024-07-18 09:32:01.510406,29200.683769274026,485.9120356853896,197.19991825305937,-43.58996395656095,1014.3527227702095,0.5662555627966623,46.66854498061977,159.29074930925321,-79.58598259540004,-38.67757386681611,355.67164945126916,2297.1252893423266,44.248865367630394,Cloudy
2024-07-18 09:32:02.510406,29518.56482598914,516.0353199090295,22.66757180814205,-42.05423156926673,1033.4612254757592,0.5069258308032285,33.15490553107885,11.984939097798815,-108.5157265681412,89.3915985148281,152.21597749265138,2047.6460909793034,21.60333899863427,Stormy
2024-07-18 09:32:03.510406,28857.912945716205,500.1280660358215,350.3150622980998,-51.503266013773676,1018.3787654415104,0.5331703506843338,80.31061247187992,-156.387761045659,-22.153291400663477,-61.98079713717301,247.14699617636327,1935.8883529966045,78.32377756743472,Cloudy
2024-07-18 09:32:04.510406,31745.756053231104,524.5595312806863,314.74700179296167,-54.84804602616597,1029.2511306305014,0.4312841088685671,-69.86011966588094,82.31228436950659,-59.82870508057266,-73.05096321195383,20.095043412651385,2076.981077964954,62.99928350372513,Cloudy
2024-07-18 09:32:05.510406,29878.22663185999,460.2109185712429,84.18022734346273,-51.66543308172608,1014.4605544743736,0.4984349348730835,-28.42868389164608,52.47596928806007,-11.882779179024169,48.534062272682434,189.94599303924738,1961.7456400265098,45.04906795339849,Stormy
2024-07-18 09:32:06.510406,28646.97702534324,495.9951003543605,92.03542978150273,-44.52661029151453,999.4989690050907,0.5539938624331677,-60.73204934070133,30.980141438744624,130.97725932115418,-31.204471604921004,51.060138767731516,1966.8581715679481,82.89739878503069,Stormy
2024-07-18 09:32:07.510406,29292.73555951672,522.0459608876445,286.4706253519662,-44.482819152392295,1021.5991663633097,0.4381480891275847,-61.509589118829425,30.39890473324661,8.990038585096698,-83.80700925196051,127.98779377527413,1743.9069115967168,15.05190891603807,Clear
2024-07-18 09:32:08.510406,30422.886164460157,536.4186504821056,57.959147164614336,-53.980462611288424,1017.2161132149645,0.5270706916384119,-57.96009129629779,-145.3529037504236,157.8885530121022,-86.7101992817689,103.56196810050835,2294.0926654536406,10.85949797768846,Stormy
2024-07-18 09:32:09.510406,30468.48831856241,483.2170739987127,41.99491374556071,-46.31162307798989,1024.251849376021,0.6007547337260197,-40.993620792265304,151.11460056268413,-167.4997258109596,61.22528483013994,184.74192496343616,1608.4947684345789,50.260217669748776,Cloudy
2024-07-18 09:32:10.510406,28381.07169707406,553.7612329366043,30.01955211894994,-50.93878203938993,1020.2938951854549,0.46844918399331587,-16.59094708258648,-79.06820684368678,-175.97246911588408,-12.29306477158957,246.4158559655876,1966.6997892631473,4.312345640487758,Clear
2024-07-18 09:32:11.510406,30509.433034671412,487.2754600772754,308.3060039892963,-42.38167299967469,1002.4851768238982,0.6418335372514812,-33.162318304306,-20.589801282433967,171.1434234118732,-18.604297539525348,78.08208759741805,2171.8822614592564,22.494393603573716,Clear
2024-07-18 09:32:12.510406,31490.865167429492,417.27493771403925,295.11086997281575,-46.03018776358329,1027.351243034183,0.3741554581282204,-52.37388510091652,52.778111293556634,50.2166554621966,-77.83980623265072,68.55152085587348,2020.0623343951743,32.79117457896442,Clear
2024-07-18 09:32:13.510406,30677.177186071476,514.4905747504577,98.12084850216945,-43.12371899211027,1006.5605512227917,0.31425276829911325,47.960984094864386,53.96908051442438,-15.282918742469178,75.53625933349477,101.23800260944815,1775.7201361992652,95.86789706345428,Cloudy
2024-07-18 09:32:14.510406,28958.725430462648,501.09181505020206,223.83231182066132,-50.870909480354214,1008.768146933277,0.5316809582768216,-14.52660612571114,145.05481793290153,-119.19337992602996,-67.18285573436847,350.5206099515041,2338.9225779829935,6.590810099757993,Stormy
2024-07-18 09:32:15.510406,29925.113088084134,445.8624022405407,189.1833546747377,-48.46556423401554,1019.6517859620147,0.41074745186597506,22.55074537878872,-104.49098551377918,-144.29598631402055,-74.02275274566176,25.967118685466946,2161.097545332104,89.17441521472375,Cloudy
2024-07-18 09:32:16.510406,30557.832318770535,521.3547094043956,275.70110225524076,-53.9795874112013,1019.249240267021,0.5913228763875765,44.13556733341409,98.27476873696861,129.75113740890845,-17.717655952879113,102.74070237599358,2048.6213405624353,56.45656131083632,Clear
2024-07-18 09:32:17.510406,29779.748293313318,477.66859038297974,160.60698281399235,-50.03327628627389,1013.156860600212,0.5879459171611686,80.28585985308683,-7.094041934797275,160.11608233298404,-53.8380799508387,0.5325536597614855,2080.4685880109505,92.59757158109497,Clear
2024-07-18 09:32:18.510406,29367.313220455846,519.5427779473346,149.44876281718416,-54.01343381030313,1019.537414590609,0.21388317402575502,82.17832938553508,52.405821327246116,-102.02631915723728,-26.68748682008973,236.28802597210017,2204.9687182294224,19.6517042164839,Clear
2024-07-18 09:32:19.510406,29918.44812078006,510.38057020962697,115.7161252769401,-50.177815343352506,1021.0621693965652,0.4496687631498735,49.472323614351325,24.664087815103386,22.98435347723182,48.507509877781956,207.65457504565336,1937.4506273069496,73.0725502540545,Cloudy
2024-07-18 09:32:20.510406,29871.583725117864,526.0812561601865,131.88177250126404,-48.30782341494606,1015.9908986053108,0.6029055531780234,-24.35373657499659,-132.8346637535605,-51.501825066514584,37.709362311050214,63.33095805831138,1948.0290254093002,62.754946725841535,Cloudy
2024-07-18 09:32:21.510406,28196.920326650183,481.68409443994403,287.3006855424653,-57.485085633847234,1034.5666622148115,0.19142113142181966,38.40568013788916,-36.79150417565961,-36.08819864853447,-80.12157830686486,204.6497391652232,1892.2799946394416,70.06004571937176,Stormy
2024-07-18 09:32:22.510406,30116.843031422508,510.2362543890524,117.62810765308946,-47.508691571379494,1022.7078260055517,0.4877495209284186,-37.58714856946109,17.188125630088933,39.106322407758796,44.37559568022729,318.2381165201344,2452.8966102774434,1.675269725587225,Cloudy
2024-07-18 09:32:23.510406,30186.50937000717,569.2888200399747,338.6714062711589,-54.911057168303635,1010.1119709821398,0.6063194357499284,-0.26150194556544193,161.59378618859733,44.497196753272505,26.35211052331701,118.27432179242032,1624.933100480325,62.56618347462316,Stormy
2024-07-18 09:32:24.510406,29373.946379268455,528.7907079321411,150.25568667009128,-58.01267315571846,1014.6418123956148,0.4630452021498725,-86.41175479619679,169.71259443531386,109.0078401042955,37.66389121641292,166.61075235257675,1827.744663625791,27.892837090373888,Stormy
2024-07-18 09:32:25.510406,30384.771827307843,512.5527925026444,159.15019374562576,-48.64327593461391,1026.5655773317826,0.3897653098621802,62.83656076840032,18.897461341966732,36.57323471796337,16.74672459267316,77.99366031816518,2090.5345047225965,94.25986313291904,Clear
2024-07-18 09:32:26.510406,28938.92440808237,450.00365244471493,306.08374356718997,-48.65147517554545,998.7178151756125,0.43847845248051565,-54.14813719234516,-107.31082919742074,-177.58293227170105,75.57335092778615,277.71137259879254,2238.7872290417536,80.26060569707352,Stormy
2024-07-18 09:32:27.510406,28694.97833190137,552.299429101668,247.6105297593472,-54.75621155495442,1020.5296968454602,0.5434306182077575,36.87936192413521,92.58852974253955,-82.49491838688165,80.37176458094507,3.183626938982358,2166.8788345843654,28.47015257409421,Clear
2024-07-18 09:32:28.510406,29867.88761485962,480.33754654492867,344.4630596699325,-54.52900345493408,1016.2297248189303,0.49907493699981736,20.184059865529093,-25.423047198804312,51.4925870937804,65.70799490741459,352.3855175548602,1949.4189923458493,7.623535778083468,Clear
2024-07-18 09:32:29.510406,30214.990593961804,505.80697365661547,296.0338093774102,-39.551049402051646,1015.1909952497091,0.23337124242352103,-71.0929373506103,63.671157205106226,-41.22265849683865,31.536044126408953,21.668518585302607,2253.332485279761,23.747873381860117,Clear
2024-07-18 09:32:30.510406,30115.61608162683,475.5617489425713,100.55126607732231,-49.0023595893209,1016.6850302736676,0.59613514150114,-26.140899090350736,146.67917232118236,-150.58193291340356,0.11754115835199741,308.4176356888145,1857.1071981716354,16.790497582710184,Cloudy
2024-07-18 09:32:31.510406,30304.58155573959,521.9749963163457,25.762617651148535,-50.59088665918449,1010.4139537146933,0.5608906630914924,76.86229856681831,96.33231266057976,80.3877053249239,70.58142550446627,169.3740987201497,2125.3259972839137,20.712836022755788,Clear
2024-07-18 09:32:32.510406,29440.987936166217,473.7333881160365,237.40230195122365,-51.94218162750537,1038.7938727697765,0.6078930207496835,-11.648295906274257,-11.991319890705228,149.04985158761343,-20.334727473837006,346.5240120713353,2062.0048562049005,65.55394546092113,Clear
2024-07-18 09:32:33.510406,30817.895210082366,476.3718617914208,224.72895829692123,-54.27711488866943,1018.9180307582442,0.4244620064972679,-4.094111940966712,-137.18643843090598,-141.01024075833237,-12.73579722145925,119.67878125294628,2020.4430119207461,6.384157778570487,Stormy
2024-07-18 09:32:34.510406,29036.970785787496,494.7844887993249,238.38487424257093,-55.00099338775989,1025.4684640167163,0.5336613572233955,51.16631788969724,-141.21781676174436,-53.91687088718926,26.527150941861706,93.84686396460827,1939.2682283758807,72.36841878342916,Stormy
2024-07-18 09:32:35.510406,30923.08078268392,405.44094099263236,99.92618125487184,-57.7935632253242,1015.9267339076316,0.4213327240046664,61.70791078124631,-41.70867519600236,11.50664547670931,14.819604717348852,222.49432801239053,1771.1237181380168,67.49790644106504,Clear
2024-07-18 09:32:36.510406,29146.574092843955,621.9499957231084,7.991686908780489,-48.97259571158131,1008.8458596876845,0.2846062657440068,52.04480593596918,157.50458456477776,-64.55353124609391,-21.675359611757557,220.48157808608232,1964.8963711476629,0.1642515104753106,Clear
2024-07-18 09:32:37.510406,28339.573606534883,606.3037730510188,116.85430585047673,-55.65492682069882,1008.7978992970831,0.5380988716832575,80.32082243914513,-113.12854878388258,-78.88412367671607,-50.89537094516895,340.63370535477026,2220.576884244483,41.89586196071452,Clear
2024-07-18 09:32:38.510406,30444.866120852617,544.8704839515434,239.4283376421584,-55.934396268834966,1012.0709120281323,0.48516552967029397,-16.84908612635533,-105.12873352905632,41.45146926653928,-12.449146189639876,179.61378497283962,2057.2988939017623,1.8438706152684503,Cloudy
2024-07-18 09:32:39.510406,29353.818906246954,519.1588434672709,13.432602504319423,-50.825678887408785,1016.1892397203677,0.48773375859654133,53.429124615487524,85.78139248837437,156.1893126768705,-69.01867963797055,318.3724783870554,2046.004690534295,83.87691409532083,Clear
2024-07-18 09:32:40.510406,31721.81095014449,570.0130058878923,256.86946116039604,-48.993750190951104,1020.8759415150871,0.5488899486174285,48.31278612257384,-102.33225338328756,17.46888209708044,54.493428589102734,33.83502995683557,1760.7978851385533,89.64542170906893,Cloudy
2024-07-18 09:32:41.510406,29907.088311594936,468.1138753158615,65.01322431674855,-52.69091516564929,1017.6532159341299,0.5590826604839234,84.87013490121387,120.74516135808756,-99.59835339614644,89.82721370619282,142.8465888603141,2041.7825502219655,21.763575381598354,Cloudy
2024-07-18 09:32:42.510406,29406.01338242024,544.2512172052514,84.79712188121289,-48.31605672464584,1018.8110785903964,0.3142484389800545,37.525685296294526,0.42927742054766327,-58.21705405770669,-43.54344230799734,181.7494671690885,1663.4808994627742,85.71008811329975,Stormy
2024-07-18 09:32:43.510406,30489.98322433912,522.3179224465771,98.90327262459076,-46.099488107118205,1025.7187950989853,0.4610441889456618,-46.940915075602454,-45.58856613071001,-61.76590623765256,81.91977975089222,60.42505577782481,2027.8710557935694,57.663586204793916,Stormy
2024-07-18 09:32:44.510406,30815.532153854536,506.7715496927958,254.97651094980455,-47.967660444745235,1005.5727174836693,0.447615328544548,44.49089430354704,65.8778097266225,-54.157908957539746,-64.22389968504898,341.49686462164135,1660.787729247739,23.86448771118883,Clear
2024-07-18 09:32:45.510406,30354.624134903454,563.1633293416644,271.1022494288069,-52.92036156901258,1014.7294000842675,0.5348557370863093,60.75921151078336,171.0028365303191,-78.75514319354357,-53.61645454680327,141.76850935523427,1898.0246380346298,52.03056648879995,Stormy
2024-07-18 09:32:46.510406,30495.10032044399,475.6017001828732,169.9920857893296,-41.35389148632473,1006.4554170812243,0.48312050371592774,10.835052606801838,178.89079578152308,-27.55817600436896,24.30534629428388,144.55397764623012,1709.5929052864824,13.196173092054108,Stormy
2024-07-18 09:32:47.510406,29181.695888737584,446.96592595700383,128.14217083898,-54.83359187391886,1004.061892289158,0.5656981021215667,12.814633295289084,-107.05514490025689,-85.64139676501746,78.45637364855554,87.7929278931148,1913.5757405083784,84.79651634456164,Clear
2024-07-18 09:32:48.510406,29169.81801328829,542.0523117945384,311.67662482919576,-45.54685962943006,1015.7137261545527,0.4572809496754337,-81.78370224030888,-49.65922575151268,92.78277751522802,-74.45586659771041,197.3142681738014,2016.833216226967,44.08378491490767,Cloudy
2024-07-18 09:32:49.510406,30979.48635258756,454.8241786013809,329.367649880145,-50.21064814828481,1000.4332681647369,0.5807157129149134,-76.66314729722484,144.5718530344692,-7.039498181605325,-58.99964502610247,48.85566789268951,1944.633881824873,88.93588437004092,Clear
2024-07-18 09:32:50.510406,29134.07703076953,547.6129902710591,232.33453504475818,-47.233788104263795,1015.0789125405747,0.7220731167203464,-58.976607027636334,46.54885522857683,-68.60474010535415,-58.9515291236348,268.5028767521678,1902.4931035271359,23.710817642919313,Clear
2024-07-18 09:32:51.510406,30958.527590186048,486.1459838471177,198.831473397325,-51.09608813728613,1005.698319951623,0.6070888789667856,73.26268117468243,73.05121180090376,-33.16014115394083,-77.54987025625059,218.87287713236964,1915.5034110222973,80.6010115253098,Cloudy
2024-07-18 09:32:52.510406,32295.415644828325,449.07046063157964,10.563660068168698,-48.506415766318746,1011.9265546443276,0.4225049771030239,-1.8452798176864746,-95.61005649303556,-21.999502029921643,-60.93567288630543,315.4808597154189,1851.6478024196822,33.60287244307444,Cloudy
2024-07-18 09:32:53.510406,30626.16517895383,492.99512257746176,149.9814046400834,-53.32078421409535,1012.0806775873168,0.5098470275531231,-22.426750811128244,119.9004829629825,171.94582607367516,88.06371561449674,334.15218269161636,1913.065990432022,99.31019782502555,Clear
2024-07-18 09:32:54.510406,29565.959232393412,463.1915169629026,113.69997186571524,-56.8427165250003,1022.5711089175818,0.490968320312757,-38.57697307561706,-179.156621504447,-5.328085220991312,-33.97881617481481,325.861296640405,2408.113663304471,57.06059867573795,Cloudy
2024-07-18 09:32:55.510406,31656.505426298634,430.1298689044544,337.011296398988,-48.04695883456389,990.5465171981922,0.4370774096040476,64.69095313947491,155.84453507029065,-47.71370037234934,28.806849692235062,139.3757230827415,1730.755889173094,82.40443941030162,Clear
2024-07-18 09:32:56.510406,29175.427077029828,529.4009081963445,180.92409066968762,-54.596699055009765,1012.3528006059913,0.4578777733916072,51.48863745092521,167.79210063075254,101.6274639567049,46.900952277960045,169.79388493377357,2068.0948128300934,48.251375241874705,Clear
2024-07-18 09:32:57.510406,29911.42323386135,542.5663298411514,206.7656154797549,-47.88726257131351,1034.549078513228,0.29059165294692524,85.45635578383366,-147.7395964618774,177.1013937989547,0.27445054546291203,350.59262279008277,1791.398464077328,60.858668137675295,Cloudy
2024-07-18 09:32:58.510406,29944.249523012542,441.1354776541503,229.97964715867388,-41.80589051972373,1011.0012695438994,0.5619615931220139,0.03707736490302693,13.208627127634458,173.54058981803672,33.98841002078463,78.52465645554875,2030.6543079199728,16.629773013918037,Cloudy
2024-07-18 09:32:59.510406,29747.964008427047,500.79859508620154,97.96927842839675,-50.202543107916014,1015.60553883478,0.5955361038368548,6.020917964235622,148.17918318517786,-67.46528070787751,77.5212636280846,294.64301398574116,1900.3541124613557,97.89296053003798,Cloudy
2024-07-18 09:33:00.510406,29559.261950189706,498.87225780476604,293.21579060877895,-51.16438305307142,1002.815501524301,0.5552249537902896,85.8426573931853,-22.870986671390284,-83.2566152451765,19.773031125571805,197.69480168505154,1906.803314005905,47.32472090975642,Cloudy
2024-07-18 09:33:01.510406,29861.6935220744,510.5408745364254,38.41054463999162,-48.30804046453634,1011.8805492459594,0.4792634876193895,-85.65159993271462,69.44334743650893,83.66153341947086,46.04540620958795,206.7214768691954,2044.691655777445,44.84087167368149,Stormy
2024-07-18 09:33:02.510406,13269.517615957911,521.1001141451162,76.47269609321306,-66.21129983333033,958.4476628988069,0.32943662019071185,45.52443502981217,-89.10048673906832,29.726309652697978,76.71078655970868,27.109170307882376,1277.318030223362,52.72177696938887,Stormy
2024-07-18 09:33:03.510406,28904.39257704022,573.0646424749665,118.0740082739848,-54.13931800229847,1008.0255562683705,0.6563852508114679,-62.42313934941494,-88.54313576718802,-93.4888728030864,21.089877368709068,43.00190941424233,2125.0915598205097,83.11282422442038,Stormy
2024-07-18 09:33:04.510406,31647.237444195678,494.1661383423645,327.71208309324004,-53.37676351152804,1024.0075492925166,0.5965219123754382,87.37799720400318,-104.17499170464554,-95.41604114043749,-56.64957967893271,176.78218878920794,1872.523219320653,41.35576561450082,Cloudy
2024-07-18 09:33:05.510406,30013.220089475883,518.017492007964,210.15878209744395,-53.895789754478784,1032.2176361352256,0.38446486076793207,-4.484898150252306,-132.5292558358267,174.88849572795357,75.63208404861172,217.37892073346018,1677.7536731455084,59.652680311644154,Clear
2024-07-18 09:33:06.510406,30490.530798665415,500.88774066360816,264.11787067019793,-55.301571041956656,1015.7935608065856,0.5356211921063201,82.68342385452192,124.08232896671109,26.273035274540774,-57.29381453596805,158.91302307248336,1772.326079507445,29.5712202419231,Clear
2024-07-18 09:33:07.510406,29677.87046185044,527.9677891008077,255.71055936428613,-54.71861557482558,1012.5578368684631,0.4415952024491731,32.91335299179747,-146.89229629554072,43.85266641122331,-46.53168180109624,188.12535049189742,1531.7085762527622,2.381769485177321,Stormy
2024-07-18 09:33:08.510406,30967.496922231137,587.7350784962432,278.70226111383334,-55.54134393786658,1009.508732710705,0.4907858708223562,67.62303465254689,-36.843561164897466,-43.32673941853821,-12.831264886771024,274.6943952746387,1875.044340588292,73.80931444092354,Stormy
2024-07-18 09:33:09.510406,31455.360855052837,344.73938461206546,263.2458037782502,-51.54893782948157,1002.0917180522626,0.4654116721622782,84.61520004454783,-106.42437610292137,-138.64582547943334,59.53726300175913,155.2445046997505,1723.7074538086024,16.60040700022728,Stormy
2024-07-18 09:33:10.510406,29412.882429158013,550.5330146428288,110.87307945811038,-48.65655273871519,1027.0553502254525,0.5637837413766114,-79.76015886366937,-60.55229069468753,95.36090730321564,-25.12059138820348,210.18171258934274,1449.6296273832272,29.414710085778385,Stormy
2024-07-18 09:33:11.510406,29493.17248556413,511.46466144813274,71.95098822143046,-51.112188927609914,1006.0031836881453,0.6366679037541974,-75.71745650015174,-4.268099346086018,123.44342374597147,71.75934247404678,189.26966915641916,2004.3190816643207,90.56595618465248,Clear
2024-07-18 09:33:12.510406,29342.16678118488,518.7589148038045,281.3402661857916,-47.39731733243883,1002.2909228870807,0.35333579692375605,5.005543891922699,4.602000830395724,2.6859925202055024,-75.43515645059189,53.35966056360794,2244.9167512022123,63.95313421558768,Clear
2024-07-18 09:33:13.510406,29872.722074232755,518.2761471037529,247.00186098809826,-50.58607786394198,1030.169205135602,0.5286497078377823,49.67947304695119,167.71148815742367,-83.59421626046513,-26.978528598174314,225.85268685127485,2229.8056236996545,72.7876821088437,Clear
2024-07-18 09:33:14.510406,28835.884578502348,400.5320347432301,222.12625337666216,-58.30444580333588,1011.2037617824176,0.3657528494193857,80.69312104540779,139.6058272863521,50.64045077664116,-13.567805516370242,65.47117162219064,2153.6931957184115,4.211947342864875,Cloudy
2024-07-18 09:33:15.510406,29785.65383576577,489.751476426615,208.4596679094651,-39.696132744482526,1018.4678364653006,0.3019784291237061,-76.76852943413851,-17.67708276055066,75.83791171110286,-85.16833949396326,127.79319749899514,1947.219501404567,82.45521790165566,Clear
2024-07-18 09:33:16.510406,29889.717732040262,485.63149340777073,157.66555225308903,-48.49607105966107,1012.8896998164615,0.25819964422996233,-42.19719738804359,-167.97308961812104,-70.22138029167043,-35.957800547120684,79.10699901399315,2065.2776666375266,42.33915626561353,Cloudy
2024-07-18 09:33:17.510406,15792.293017634816,346.8283198888429,242.84375478860488,-46.24375919799299,985.1379824726686,0.9588271235256014,-8.757765087882106,140.79906324754592,-26.852748132730426,1.5721126786209538,13.987860725747542,1993.1802401913046,70.92110842340902,Stormy
2024-07-18 09:33:18.510406,28953.101366008348,469.14585306479086,172.41199615309986,-51.73912373823717,1030.7843808624273,0.5617203484163723,4.736680645346837,-68.42393272925196,156.65882925361643,-29.44866162515106,178.48353055936792,2188.1700937800983,78.73695698836309,Stormy
2024-07-18 09:33:19.510406,29852.19325174829,486.78443656958245,152.29886904729946,-45.17831476603819,1024.5678839523696,0.45570948331871763,-72.41087097416009,123.29480348008394,-10.021602327224429,4.56847338340819,162.6257012164285,2007.3746685234448,50.61397692751646,Cloudy
2024-07-18 09:33:20.510406,28589.41310096395,536.7156086746088,307.02353641689695,-53.24182519281066,993.4641505545995,0.5188093480579749,-15.509495639305868,-92.90839403290501,-76.7142847714223,40.362300745553256,280.7174537998539,2075.5259726739773,96.92810586779822,Stormy
2024-07-18 09:33:21.510406,28942.32624626054,577.6998164592126,161.56741574821993,-55.64232806783848,1012.1620044267569,0.5232357283804107,-43.86374415483318,10.565553115549363,13.29599606887524,-87.36945373767371,60.06621771099961,2019.4179249020544,96.1500116106482,Stormy
2024-07-18 09:33:22.510406,29547.287555684336,432.8979695208045,327.0935303279027,-49.04624285654308,1022.1281484468066,0.5165000339263923,55.36367291047398,-48.400215280520314,-138.16343185056178,78.8517684822333,141.16973090451455,2289.8385040694434,17.4495709282934,Cloudy
2024-07-18 09:33:23.510406,32352.7430205002,427.4272585436825,45.02297712056584,-47.076827762360196,996.2969535234349,0.5189351343123769,41.02856837124034,-178.1510534095552,-96.72593829556978,-59.425855195520974,162.7431370391831,2245.245262291954,75.56460827458766,Cloudy
2024-07-18 09:33:24.510406,29755.928879600986,464.31249628080775,8.467498199632901,-37.150141355277775,1009.3861725223396,0.6426916095159374,32.194070565199,14.68594504444519,28.907057311791988,16.407400913136186,289.33732624929377,1555.5853500611288,82.95513362413135,Stormy
2024-07-18 09:33:25.510406,30408.713619191523,556.488694685597,188.92669872448204,-51.86941939637717,995.9694374820898,0.4777968719195097,-56.8873480505174,152.67512043367105,-177.65439247796667,-14.658273903695772,281.1814409226441,2227.8714547866184,34.2376772817637,Stormy
2024-07-18 09:33:26.510406,29899.756907679297,560.3046819859941,38.025032784998906,-46.805198596395286,1025.0053157741454,0.4625720140644665,49.73644781418585,79.71153295770841,-60.68940061631578,-2.252398588458945,2.224718359505582,1767.160228319974,6.815772677428544,Clear
2024-07-18 09:33:27.510406,30236.117333475824,500.6381713940425,158.9824370098575,-51.52731217515176,1016.3601653773119,0.5799648881106797,-57.21156725770859,30.669893477682393,16.238449810948566,-35.38817917224584,119.74174305090952,2219.6608978790473,73.74552448286141,Stormy
2024-07-18 09:33:28.510406,30147.79381819355,519.7941819418855,25.54385207486054,-46.22487895010632,1015.8206023544132,0.6049504969210225,-16.00710358849375,-45.47723560456663,-170.2241305886773,-50.291695734398246,300.2387040686845,1684.659973393042,63.022844634807115,Cloudy
2024-07-18 09:33:29.510406,29970.249862837496,428.43395336697586,339.0919149302553,-48.7786487981468,1032.7722138607196,0.6188932843873033,34.55785418818232,170.9723599869668,-121.62751620924699,-10.085641004130238,94.77324066377385,2010.1462743763673,12.9505948457866,Cloudy
2024-07-18 09:33:30.510406,29635.621038327812,541.7799801279552,91.9427227975338,-57.10213155486643,1010.4990514201559,0.44669643037517864,69.21401666358287,22.087468240477392,-57.53942037285394,88.59677318226042,108.51365224584696,2064.927895636465,26.26807555076136,Clear
2024-07-18 09:33:31.510406,28603.425982565706,483.8489433393248,164.6738549202588,-54.051070372270296,1012.2226368069304,0.4749750865537147,-89.4552337186208,4.36300444187188,-41.618052791003436,-20.300612571322446,356.22005816272235,1790.786035588333,43.17938589706104,Cloudy
2024-07-18 09:33:32.510406,29399.67365252079,456.5933519488385,56.36625342577944,-45.94943060232891,1002.4301996810046,0.3411725850523948,-85.51726686196118,127.06852504987654,93.75441224040605,75.09382607421043,333.2383184859444,2336.3878011964866,91.53957519531524,Clear
2024-07-18 09:33:33.510406,30972.75912156793,399.9308462909969,81.94253353638176,-55.87993684307305,1024.4061761639082,0.5147436827725221,15.685578196909802,-149.90703687366465,-109.95797461089244,-66.97962757251346,320.8762107964717,1871.8945068942844,59.33287918871598,Cloudy
2024-07-18 09:33:34.510406,28671.52859571225,536.2806825048593,159.91930453272366,-56.04003980115536,1014.0375140330966,0.43949962539469284,50.23567315286431,3.467728288288498,49.99672956800046,12.566002201988738,201.76561883425637,2097.2654410653963,7.474252330127495,Cloudy
2024-07-18 09:33:35.510406,30067.17081474917,518.7663098381597,340.23250341229675,-52.20683195149268,1006.1751886601298,0.5810937369819433,37.63106483872811,112.29566526608278,-24.605309010447684,4.448699362065298,39.97984606663899,1922.7598373379346,28.293641932308066,Clear
2024-07-18 09:33:36.510406,28256.14189120601,472.51180929396196,334.9922263462777,-54.58931166506224,1027.506978082694,0.37683309677658705,-54.944002432725895,-121.94078432759089,59.1268190767895,8.443994158655016,48.59035660861569,2011.3081861176368,61.20140302662639,Stormy
2024-07-18 09:33:37.510406,29910.553634620766,497.5608233943809,269.2590532840228,-45.14774086688597,1013.5172745046966,0.7704591235944043,-61.462045233387585,63.42327504101431,93.8640585546512,-62.83497063252371,13.344374837226347,2113.0441961840475,68.3793970439827,Cloudy
2024-07-18 09:33:38.510406,31167.740235457964,546.2809921688271,131.9459133842304,-51.73886146720693,1032.1559265400322,0.4537773454996277,-79.63292083080387,125.31919052917044,128.07101086511472,-53.26198235289565,259.74250984854143,2052.23652992152,63.43045565540625,Cloudy
2024-07-18 09:33:39.510406,28465.353221470657,455.9595852272508,102.91230372071311,-53.563579714533354,1015.8719897215854,0.6925394347811709,-15.00986652810397,-104.69653032305406,-73.56117324889357,-6.762326500516878,23.687893036107646,2068.2777047657023,32.15089711892146,Clear
2024-07-18 09:33:40.510406,29979.811639452546,506.9280461982716,102.14595804412302,-48.0605091286178,1023.4747629842169,0.4523550752615647,83.50380872559157,-122.43876210513852,-138.18684670691482,70.00850435277414,18.136854500763814,2055.4496576520532,16.71263224089399,Clear
2024-07-18 09:33:41.510406,30076.241354002068,541.0254782415923,2.1579217001159323,-60.7007739435158,999.105484551816,0.5218891887079052,84.68928629343898,-73.33726196356092,-108.28735784241016,-68.69062706726127,218.29389390186122,2181.1418725033286,34.8322694134788,Stormy
2024-07-18 09:33:42.510406,30363.240581452585,403.1701014388052,318.5442019082013,-48.96667825204138,1014.2219859172752,0.5828613806423247,87.68763767190237,-113.5634489378181,-49.52762845069975,-33.41729334723578,321.83200590361605,1798.550927140594,47.44301553370561,Cloudy
2024-07-18 09:33:43.510406,30425.89695068637,501.7568085561696,286.94100824320344,-45.477357375446104,1010.5152269676138,0.43007223491084345,-9.930239891752564,162.56954811583165,-88.38712354740382,-28.72862565111609,106.92069665127161,2149.3672218938127,5.850230162496228,Stormy
2024-07-18 09:33:44.510406,29084.866717619312,593.7138205930822,353.7830397215413,-54.14307433646733,1023.3949814830916,0.2429746445932789,-58.883185576805026,-113.6356538964535,24.836098992086164,60.7012323263252,91.26288665659646,1927.5001081772796,35.65491236442158,Stormy
2024-07-18 09:33:45.510406,31510.44703236669,500.493700073393,115.43311854087955,-56.11534817036858,999.095935036775,0.5894918712951306,-3.047770265718583,-172.282575818393,-10.885279042942386,53.4950953899546,20.87457906652647,2035.862251669726,43.63166613802003,Cloudy
2024-07-18 09:33:46.510406,30238.215251586484,504.09610740083485,247.08815399656908,-48.4453217579751,1019.038982302233,0.61221276533188,23.458119274616266,12.845165604336728,-30.03412139460832,-14.725026521454154,159.12627333536813,2024.8733048496622,46.35372270074585,Stormy
2024-07-18 09:33:47.510406,29996.999876231224,432.4284972259017,220.40320676433015,-53.86460845882632,1027.148726938607,0.6604911899970021,-13.783632362365992,-18.330426958330833,152.84326532947262,71.2396068420702,318.6473956721455,1912.023206112664,96.32872359896893,Cloudy
2024-07-18 09:33:48.510406,28931.353832421053,463.84166829232146,64.92365280048897,-52.85388612234987,1006.8191229938126,0.47750407685150253,-53.5642823343833,77.78916132916095,-113.08380747419481,-21.51238784096688,38.15452493430917,1826.277251402103,15.917942926052643,Stormy
2024-07-18 09:33:49.510406,29203.307464288933,508.4903531912579,119.40153822451956,-57.128905415790356,1026.4031830864415,0.6539704429369131,75.37744377039121,-79.95899122798225,-65.33383480203425,-12.025857963835023,47.20917240252454,1828.864742237431,39.62126129438881,Clear
2024-07-18 09:33:50.510406,30051.39281856572,553.6128430286053,300.6458481993567,-53.22688260935842,1005.8066835223385,0.6806100228394223,-39.955896645331464,45.393481861461396,-13.02358559274495,-79.13858100882747,95.06525504160092,1706.203748290717,63.49345305859484,Stormy
2024-07-18 09:33:51.510406,32183.103232942558,528.5566342024106,267.4083550225367,-51.18559675182758,1013.361172698334,0.4187311808820388,-10.323974927579911,143.20874576980702,154.75401982500705,63.176279934603855,179.6251562181842,2193.5327191065885,5.764673821368604,Stormy
2024-07-18 09:33:52.510406,29791.87233723083,544.4841286494167,161.20809597122033,-48.0471929754528,1011.6582758900605,0.4126411299856958,-75.05848134711492,-139.7094532246126,-140.03896675788894,-77.97148739810821,274.2537028360131,2026.4376543728965,84.23099581634267,Cloudy
2024-07-18 09:33:53.510406,31784.142127923376,549.5749126719536,350.8499050621008,-47.48433177893787,1012.1956964360688,0.6820363233036978,-42.644390047743556,134.9343104297647,-160.337430838093,-36.475118765431134,111.27587822685561,1870.0284341637582,34.37995346775524,Clear
2024-07-18 09:33:54.510406,29157.423468673354,516.0426307788158,277.3468416103903,-52.54241923805219,995.4866747764846,0.5199022457411944,20.68144559894857,-144.61286141409062,150.0370134220314,-8.925266754356059,73.67330623166066,1867.1345874660417,44.19759411554492,Clear
2024-07-18 09:33:55.510406,30360.262317047822,437.8125917926153,317.1389734626784,-44.705420723947455,1006.2068725820054,0.4906567481661754,64.1612703732805,-51.60958856399307,7.548003365978872,85.4104132396507,226.29762326460678,2270.1540864715266,56.74239787581119,Stormy
2024-07-18 09:33:56.510406,30831.227131950393,436.7118183176203,137.27108796988878,-48.54249827507587,1001.8734759836218,0.27694854415591885,21.125020889335346,-47.35561211016616,-42.48776504327921,-21.877048112923603,118.08187433050543,2244.707884799129,10.96480986532865,Clear
2024-07-18 09:33:57.510406,29579.862118416724,423.779851852725,12.285677677822683,-54.92662734313226,1004.3354711354049,0.49378121985389584,-73.60259191711589,-22.65738659331396,75.741335363801,-57.071897102356026,290.89201033700425,2247.223533315687,96.58377944407128,Stormy
2024-07-18 09:33:58.510406,28047.9763977655,549.0441761329331,186.7036304780885,-48.3238033329242,1005.3854942261139,0.5552776990614563,-77.59139594470888,49.47460703396618,101.32882123728132,51.292456341771015,333.52006417524564,2009.1147050106133,50.148790185203985,Clear
2024-07-18 09:33:59.510406,31335.875618879854,594.1435666346094,214.5268649337575,-50.83281372049341,1018.6647229339959,0.376891224808863,-54.46932208087683,25.87891796779911,-166.61153806299737,-57.96099786186369,114.95338782496103,2015.0895982490906,7.013258022575608,Clear
2024-07-18 09:34:00.510406,28248.748827985633,537.4617970648338,9.597105957562725,-47.883918086274505,1016.8179119867442,0.4785780248625325,77.87758284411728,74.17225435578158,66.72406519951699,37.57023278253102,20.91472106622477,1698.3617426233425,65.95134777808298,Cloudy
2024-07-18 09:34:01.510406,28788.89678725512,605.6874379530526,135.970612558171,-50.80385661998404,1008.0446045171946,0.5437038893577669,56.0024554917438,74.16532589438341,161.65944948514772,3.590010651557648,195.7647423620971,1837.108742352044,81.76313751145187,Stormy
2024-07-18 09:34:02.510406,30309.934247555335,454.46125714419327,226.68839254709613,-48.804600245016246,995.3248913376013,0.3963991376157913,77.75974727795253,-65.60914781652602,-49.13467166963778,-35.897007159077845,353.6342525795692,2002.0519027382034,39.84059107656829,Clear
2024-07-18 09:34:03.510406,29599.94808862763,424.80675321499655,45.29630374051768,-45.87281422560459,1026.7820710355454,0.48255642590799186,71.9419859872022,14.034049372718641,69.36197531229138,36.520949629309726,85.67539586147736,1829.7921329934416,41.557550911694776,Cloudy
2024-07-18 09:34:04.510406,30345.294319027875,450.0042768543654,295.3865120331317,-44.9849925161121,1014.9980068739923,0.601826016072932,-68.28099726893576,-129.20289044311858,86.80269272944162,-7.92495841492493,53.62119246892708,1956.944514357111,22.17319667501343,Clear
2024-07-18 09:34:05.510406,30220.21951327056,433.4202552841507,316.6007107298996,-48.89002386890341,1022.9028612761166,0.5441282589467792,14.452121219926255,20.060797863352946,-55.66440230041063,29.972013470421913,162.88828115277323,2319.4302660441704,37.53182155793196,Cloudy
2024-07-18 09:34:06.510406,30708.89167671966,558.0745629109691,301.6900401374306,-50.164618123845614,1020.3790613603876,0.49080700028348995,-73.59071158728149,-130.20797332910453,100.35522548377128,34.912663912458825,12.389424086404862,2117.994704842733,38.48672237569104,Stormy
2024-07-18 09:34:07.510406,31336.41203379153,501.7379748459241,220.23905276946954,-53.32547537934192,1012.1467805726967,0.40629183659565277,-13.691355131886866,5.950088845842657,65.67413291363351,-56.68400636328832,10.648324179141424,1643.5720576886627,56.63996318548944,Cloudy
2024-07-18 09:34:08.510406,29658.271968898283,553.3170365297849,154.56958194469826,-48.32501178030996,1014.2800933288695,0.3770472717018333,6.8344412330652915,165.8688257238245,-131.7396200078488,82.96779792655437,337.29306731853757,2134.994810149569,30.778423995547357,Clear
2024-07-18 09:34:09.510406,29776.126265303752,497.5967030266361,231.34125077158535,-51.55887093949771,1016.2363481763376,0.5651514891220866,-33.52474740682965,-57.823527944584,-67.70647171731372,-60.265008562382164,35.56476493184836,1891.0727573688582,72.57829009413983,Cloudy
2024-07-18 09:34:10.510406,29515.307016098228,487.1122252371117,171.76545739020906,-50.60250002988162,1038.4991996547965,0.6228118333657896,77.51540662588226,-149.056366176563,166.7152558833423,-22.194738209458976,157.94018007063042,1859.1920481054283,1.1368803388494664,Clear
2024-07-18 09:34:11.510406,29900.148142376365,480.4258035243617,95.64844682546942,-50.849874162400766,1009.6384243463075,0.566315272792383,11.191797920271725,-154.2535612538879,85.4004018888428,-53.431053705375724,76.66386508261019,2074.15300857574,2.5425557300734813,Cloudy
2024-07-18 09:34:12.510406,29682.172734490523,478.8617197927095,260.25325696730994,-43.72180657401224,1015.8907398961984,0.5694931528164142,31.142979943388113,-62.061635359025885,-42.04838138560666,76.82906994098164,10.782648916767293,2045.9472278769151,7.277169986819898,Clear
2024-07-18 09:34:13.510406,47942.07755537503,115.00550068470734,57.01234536100047,-11.808459926158918,999.6377802683619,0.4558745131230979,-67.50192010815911,-50.210846847550556,-120.57169273174628,35.613526144351226,138.20069547337016,2189.828340323248,35.093770436491944,Stormy
2024-07-18 09:34:14.510406,29642.325364212382,434.4263140517369,249.64163992911725,-50.61334296419673,1004.0411458409321,0.3613903109497531,81.40879081584816,139.74945601746418,-67.42001795647566,-45.58750504938982,260.14334283074874,2169.4236464076985,9.624589254117822,Stormy
2024-07-18 09:34:15.510406,31594.92935062693,521.734688881111,99.16807232448068,-51.88351661174743,1008.5045886928044,0.5322976646247787,4.823348535266234,120.56824144545033,93.01344944414313,22.41387673525651,169.69165161617002,1403.3336458641988,30.147039734676582,Clear
2024-07-18 09:34:16.510406,28422.18365040219,487.4441666981093,204.09277961271187,-51.70959136042349,1021.5480218291262,0.6156798818157735,-77.29173242429762,67.49393536226208,145.8316129982088,42.6659549309619,337.88047551144865,1765.6905355889621,42.96452277095456,Stormy
2024-07-18 09:34:17.510406,29307.997595668177,524.9563549428058,267.2869526313777,-47.912920700625435,1023.9966417682791,0.39038744634457867,-59.8186926391884,-58.691545853752004,95.90433335995476,-38.90899442864551,256.92947033651166,2121.5369410565872,29.128271453161737,Cloudy
2024-07-18 09:34:18.510406,30641.513315781394,490.11813765759933,318.17102857172637,-51.81663809184449,1010.5221228563653,0.4080239957080917,83.88025304700506,87.48791232965277,19.25014142287239,0.5780916493573187,241.93607189949228,2020.9257671097723,82.83240245771754,Stormy
2024-07-18 09:34:19.510406,29784.299584562745,432.71349843641747,324.788005730513,-53.205669755274435,1025.0246268719316,0.3512568008305802,81.09597272854504,-170.78456081961082,67.29714206045722,-47.44340465661839,72.71978601546114,2078.038265993392,9.278265318614022,Stormy
2024-07-18 09:34:20.510406,30120.33117504532,439.49498136882596,88.50711067022291,-50.19221467306262,1019.7352259247027,0.4890208408806963,72.55123699489451,69.26409894206694,116.75937732056389,-4.095811098872716,77.82207619165435,1981.121415078426,20.00438877700369,Stormy
2024-07-18 09:34:21.510406,46021.01020441857,158.74977054654448,196.8466171108201,-65.70791251464462,1078.206837073718,0.5470538483230489,-59.40260470248991,117.94847528064702,33.65037799005728,-71.23668534614491,23.463793235393325,2285.005118409088,4.164721891345813,Stormy
2024-07-18 09:34:22.510406,30056.736841587455,449.85619853873243,321.97283685584364,-54.932913798418625,1014.4992880334504,0.48489017438037096,89.16892238800907,43.714621120803315,-146.6326661494357,32.108056038912125,23.881376040535645,2252.024151329108,6.479063979499333,Clear
2024-07-18 09:34:23.510406,28981.740693457723,506.68434221708515,231.9311486096274,-46.371878510621855,1008.3733251888017,0.5704221791837304,35.00655251227067,-36.42176288598773,-81.7180818275737,-77.89821103027903,278.42676216893886,2110.982027693403,54.01859541950742,Clear
2024-07-18 09:34:24.510406,29015.220455637045,446.6540732879886,170.11717212123546,-54.818447426846845,1011.1420946111327,0.3508941752105338,35.68000798749962,30.605645738494843,-102.91044307120256,-6.416564768065726,119.7800395109482,1977.5247769307746,46.3366585043507,Clear
2024-07-18 09:34:25.510406,30488.734297504543,374.05429691342295,32.13162785936924,-54.72416828570612,1024.450751552566,0.4590621465672475,-15.940465445627453,85.80197588925842,129.0331102031144,-35.422979793951555,313.62830875644875,2381.795594407098,16.582265694332843,Cloudy
2024-07-18 09:34:26.510406,28847.447103211944,466.00534233607306,15.070816511179114,-53.48055169881671,1008.3580461601986,0.5054737265519451,-76.34765747991052,-83.9759086375503,139.22750620363377,-2.8586100731754556,32.20257159552212,1896.1534369849114,21.91221884847184,Stormy
2024-07-18 09:34:27.510406,27037.959073996248,172.28204156441063,12.096223491174234,-43.013226153256916,998.5748402465138,0.8943919465679159,-23.047852707719215,87.16461957201562,-107.11311868657229,33.79254423164346,38.2024631655754,2435.3600033341754,6.439918780638621,Stormy
2024-07-18 09:34:28.510406,28303.174347866814,512.1055859121785,338.03274959300626,-55.974855410600746,1002.0519187361693,0.27522909799209827,-54.08026610068292,17.018253683010414,-0.9559045018971517,-11.448766306571912,182.01083014674384,1925.6265527098485,44.94651826989785,Cloudy
2024-07-18 09:34:29.510406,29590.561535496097,581.9612724581993,118.65786271202202,-59.92985789095297,1019.601209598707,0.46901150795653207,-72.66251394801287,160.86551319058407,-28.08659095910312,-39.04324589743843,97.39362612915068,2100.335305069898,70.24232199913159,Stormy
2024-07-18 09:34:30.510406,30119.34400557712,478.91724009236356,172.35250886261417,-54.17830454567582,1016.821003785772,0.643488074714281,56.75513444716856,-127.35215641822643,19.25586792659533,-43.17373294602975,249.59707707028426,1817.4224509221312,79.46095921467304,Stormy
2024-07-18 09:34:31.510406,29657.085738515823,502.8419229281626,232.76859844851595,-45.585937001687654,998.4400881287539,0.39583293970167516,-61.04851882012612,142.9633542798971,128.09859848961315,-85.31473141338734,121.47358555958789,1821.7233082642827,10.12676482784929,Cloudy
2024-07-18 09:34:32.510406,29763.59727074066,519.8962842879885,190.79413015922785,-54.26512840928774,1023.182427469239,0.4699795215654642,-11.226369368847926,52.60620430527456,-32.00824030435203,-68.87956108221988,356.1171977187149,1561.43093875364,96.31729911386167,Stormy
2024-07-18 09:34:33.510406,28049.08031782713,418.19533323328795,34.88825613505942,-49.98539519189294,1008.3645415178622,0.6579855399198354,-4.050431649768569,-106.19643224961848,80.96688970983723,-11.539872811677185,68.65302491389023,2063.9700268159627,86.54044629003891,Cloudy
2024-07-18 09:34:34.510406,31225.81888448584,554.2109368329136,268.1778985765877,-50.9820811389078,994.67281168812,0.47680005755529364,-65.57858692810456,-129.81485036512012,-114.18392450091706,14.574350706409973,84.15253558380488,2211.8053463663755,57.65747137127371,Cloudy
2024-07-18 09:34:35.510406,28171.126113127284,506.06319016093005,359.4922160496373,-48.93609499680245,1032.4271397186444,0.37454050585986587,-1.240464320995187,97.6921423164402,-169.51776869464652,15.013995422853412,243.1834136306922,1883.6899912304302,17.149944926654104,Stormy
2024-07-18 09:34:36.510406,29049.565776602903,474.29696381427146,208.1905598435664,-45.348475230718066,1004.9461804106153,0.4097949750025899,-58.71621341205154,-163.13369854343068,77.46034397080876,-84.28076961433736,347.68527000282785,1799.0009140470065,64.58042469162443,Stormy
2024-07-18 09:34:37.510406,29848.787766936595,474.994510484021,357.9459448290242,-52.86286049600493,1022.4001394072516,0.5688200426627567,-51.76452749803346,-55.121760252643156,-69.36447458891746,55.19469973552907,38.658843745625184,2253.665249997751,43.865105855285435,Cloudy
2024-07-18 09:34:38.510406,28203.424571400097,486.1313282725993,271.50004994265606,-47.70721321724328,1025.6618061614618,0.4474719276449395,9.178934086603505,23.100369966317686,-82.10007247236443,63.410327635254504,170.8963072792758,2050.2067432658355,13.940818905408193,Stormy
2024-07-18 09:34:39.510406,29775.6958769161,504.8897962917684,284.60146938620016,-47.40922397874707,1027.737772410978,0.39053505793512805,47.13167317638144,-137.17626298240174,4.618965922421921,86.0921552658206,277.72228357982357,1921.3479069791483,78.33089385336976,Stormy
2024-07-18 09:34:40.510406,30452.95069682721,558.4690363264468,57.273666276442206,-45.69306873175383,1009.6894317762539,0.395361621732487,-76.88473412425007,-18.48291138680557,-112.63717655758569,88.78853186113474,142.65975252176963,2133.689702537886,12.440573671968103,Stormy
2024-07-18 09:34:41.510406,29936.750719727872,437.4219225951431,62.07679772867036,-50.61358389209837,1016.3466763929949,0.5023433149161393,40.65753888516349,154.06892302507566,73.84012202565435,18.86122777918797,128.9385032338445,1721.8302569917353,31.390058605520966,Stormy
2024-07-18 09:34:42.510406,29046.62308155932,563.6754778391876,300.6335982469504,-53.00973819806341,1002.0437891411678,0.6560012126667828,73.8419665546794,-96.86056345754992,57.83677785171153,23.26539028560353,107.74604241722709,1962.6218436661563,92.54248366844745,Stormy
2024-07-18 09:34:43.510406,29415.59394245972,489.4328828946837,90.01421419272005,-52.31668840039212,1011.0576208588573,0.46498938897789627,81.89503172047532,38.29518337700455,-174.04710432579083,66.89186537039001,310.3879447454683,2131.313987358756,27.19080336144777,Stormy
2024-07-18 09:34:44.510406,29462.890054558637,455.62637209603804,39.73664882647404,-48.76510038900431,1003.7726897461223,0.7273400564870529,52.34849540134189,69.72023873938059,142.3073118349177,-64.52670498386931,120.81771910405763,2506.2067589040084,93.5124958339585,Cloudy
2024-07-18 09:34:45.510406,31033.78205807914,504.8250489391236,17.58307271548947,-39.900055753472984,1006.3835037593029,0.48912878553606265,53.46185508927306,41.06273371315001,98.9938416472292,47.282715116714286,352.22081176576745,2072.3088232053206,75.57017195265311,Stormy
2024-07-18 09:34:46.510406,30137.958019517704,455.7771905479162,342.2757140154208,-56.92865115808691,999.9373484642398,0.6417393645132645,-26.537795624726108,-51.633376120058074,-84.0804293395429,-31.765006635662687,89.32251830193044,1716.0286780154743,69.97039468316454,Cloudy
2024-07-18 09:34:47.510406,30208.83292848999,475.51897712575527,330.54650543279183,-43.80468189453473,1010.9680821875824,0.4992139289225075,46.46458877318241,-55.204323252730006,136.61572004885687,63.12286607710561,176.18269245067077,1669.026493297295,64.34401789328523,Cloudy
2024-07-18 09:34:48.510406,30228.86320229652,515.2610413894437,188.79058859505304,-52.10160309841407,1006.6986056281131,0.5225772036329939,31.463882526863657,-168.60495209357546,66.5340139679088,-36.435907805228176,229.61151414772107,2095.19821764065,59.99866445838992,Stormy
2024-07-18 09:34:49.510406,30100.18297035706,542.166487796432,73.72422246563148,-48.42868987167749,1002.9655796136277,0.39824913147695196,-47.55633909934188,64.65515358013124,87.80398020551047,88.78823066731997,126.4898940200426,1986.7376952332615,77.18343399717746,Clear
2024-07-18 09:34:50.510406,30039.51136768346,547.3704340807536,68.17593989876733,-48.80420332758442,1004.7737141891561,0.4912621442927873,-23.390439387207067,-93.24419497144282,61.816882089077325,-25.55285583007192,324.6339880352441,1716.5847080800863,52.71460813770904,Cloudy
2024-07-18 09:34:51.510406,29755.179522571816,504.921462466525,97.83386832480329,-48.641811028993565,1013.6228100818879,0.5706388936160744,55.22476324496998,-174.3003223697866,94.73338490863586,-43.6538876243075,234.4989657533494,1865.2226050353352,79.75974951480377,Clear
2024-07-18 09:34:52.510406,30078.5752304578,540.5393468897379,102.616271757567,-59.14982073450739,1014.8624809931244,0.33829285632767747,-30.75191239219921,156.75573696165947,129.97558564864414,42.40570292237737,261.5785802495426,1999.9778267379559,93.31881670805534,Cloudy
2024-07-18 09:34:53.510406,29996.69233307966,499.1508175158091,181.78341939223668,-66.88269391312602,1017.2453018840898,0.6239095884575337,54.27317415544988,-137.53944290413563,167.2281133761366,-25.813802276751773,225.35458817949868,1874.355715768201,87.96758633736368,Stormy
2024-07-18 09:34:54.510406,30460.596442369195,501.24755429827985,11.899392810208177,-52.054662190218934,1013.960465461747,0.484356020379446,-25.930168389580047,-25.786099584600777,-54.980194688551435,-84.47586882655054,58.26131374367047,1961.208110190116,29.530449164337114,Clear
2024-07-18 09:34:55.510406,28417.378097286834,512.2513893796986,99.9775173060453,-47.835049300770706,1030.232991047154,0.5031070148980169,-52.87761239340653,34.89767840114922,-130.5225343559452,-41.050677738301225,5.8922286579355365,1776.5547611953687,79.74252927620168,Clear
2024-07-18 09:34:56.510406,30419.111985415853,481.2308543188057,42.79392523901545,-60.22299765840123,1009.521012802152,0.475832126389499,70.96396610567376,171.1391703316786,49.16126362197926,67.50849756629418,98.13744931845991,1906.323225311024,67.68827736170996,Cloudy
2024-07-18 09:34:57.510406,27313.50505841793,642.9533543963064,96.32012642911222,-23.542630786756973,945.4312013049318,0.5636829455074249,-21.323173808844146,81.50664571963807,-125.30973327572113,-26.50457685334876,329.34701215044106,3259.2784783088296,28.168208081665334,Stormy
2024-07-18 09:34:58.510406,30711.673655364983,487.4758978123528,98.11106956093371,-48.77377745921771,1002.5843588092135,0.5307934050481389,-64.79966149738478,116.31114736075403,62.624042054216574,85.8438647894695,222.97502152799632,1900.769607538845,86.56925692411052,Cloudy
2024-07-18 09:34:59.510406,30311.25263732304,549.4174909682157,73.67921248495954,-48.59230272247924,1012.6475875272652,0.33186661597077516,-43.96511028718222,-3.365627874332546,-178.48266846148368,83.28283835526452,281.35877138417993,1836.1173161565987,38.989284199421434,Clear
2024-07-18 09:35:00.510406,30218.173414315763,420.94166791363114,35.114618381855024,-45.027008334010375,1035.5771422380574,0.5417458289726395,-71.29273665388202,-44.8831364560275,140.4761839665518,-47.57171599582521,259.60759596816666,2065.021776931401,37.4656480005146,Stormy
2024-07-18 09:35:01.510406,29037.174818355994,509.22498620001926,240.81650415826263,-48.885216893619884,1009.979048671998,0.39293693199226,12.629479106398293,3.156959747376135,-111.09489181729387,55.233789201807355,245.65617484939304,1969.2478194817347,15.529879848200567,Stormy
2024-07-18 09:35:02.510406,29240.970341008877,483.05886835120134,175.16775100339822,-47.30479669801116,1004.8922457534717,0.42277993880926207,-3.266966490627283,-116.55736855833268,-39.9201501970272,-49.967287333727356,188.48726978552182,2236.680203847766,66.46961929597455,Clear
2024-07-18 09:35:03.510406,30043.32757927232,538.0642157777354,293.2538474524518,-48.85357809320246,996.7509241608635,0.5537870433776008,-83.44976092411207,-145.4149024039425,-87.43756057750241,-17.508905902764837,273.6425302589494,1894.331293663792,69.67577931468928,Cloudy
2024-07-18 09:35:04.510406,30037.37387323061,553.6217604733781,228.1457406584693,-50.54236288808262,1012.0969541132931,0.4836704711362603,-30.942218886515562,81.51449741723002,-176.5552928106586,-76.96074624887055,276.2744549246923,1836.8961333450966,34.56867373659848,Clear
2024-07-18 09:35:05.510406,29324.95553014789,592.0060437697721,99.38896539464234,-49.24773760383438,1009.509633346351,0.6146358374379413,56.86798924442883,92.86589405635351,27.705325730063123,55.06968176502241,321.44991009621367,2138.442007017798,98.72511545752948,Clear
2024-07-18 09:35:06.510406,30603.90099166493,468.0379351373473,236.24229365176518,-51.56883642882378,1019.9145712920308,0.6300343819661353,-59.27657867230889,116.25315943503597,-160.24225863133262,70.82595022754938,342.573210910769,1908.7484266307965,7.557063031609701,Clear
2024-07-18 09:35:07.510406,30673.106409352706,440.4541037272369,307.58166344843386,-50.31057385813792,1026.0089870646907,0.5217619445037541,-57.171734193838205,-154.21212761054218,-116.39892152898784,52.72367156161721,13.02250143893823,1981.4129714714877,25.72485991839337,Clear
2024-07-18 09:35:08.510406,29798.071919930364,490.6612725739402,162.58426461822773,-47.41454939743925,1015.2082305501385,0.43032621383436404,32.90177416645891,23.41907155108879,56.15025157231736,44.066617908660504,50.02375541263162,2269.708622105515,43.02245422181309,Cloudy
2024-07-18 09:35:09.510406,29466.052208915706,451.1714327586941,11.666542022992935,-55.38756058699211,997.9353133899714,0.6118728165945222,-65.40655129078567,71.2150926231653,150.07577376906283,-23.709610548827087,165.21305425929577,2306.4248602188013,68.31200678748553,Cloudy
2024-07-18 09:35:10.510406,30012.54000772393,606.5876085040376,183.15092972033477,-55.69941535001322,1019.4506830276853,0.5316310112111392,47.22263380837029,-29.623690039337845,-17.829997547252248,-11.581090004636735,222.52366087351209,1883.745138876991,98.70640075651444,Clear
2024-07-18 09:35:11.510406,30366.047107545175,588.1619087478049,172.90127779096176,-55.64506328467392,1013.6539717535995,0.4871093603104931,-12.177669750593324,153.36809680705232,-26.32106662982474,-22.260119203608852,255.8229555053905,2046.979959036382,8.333857952769252,Clear
2024-07-18 09:35:12.510406,31544.928715170274,528.6637663200055,231.07487292549627,-41.533978734447786,1011.6391912503212,0.461669964823876,-4.819789898677925,-165.30962699384048,-173.1332365958557,13.272211575044295,131.67370623806022,2014.313137243675,6.203777309823355,Stormy
2024-07-18 09:35:13.510406,30064.576581158886,438.5320417612797,28.32122483621749,-55.64395869066268,998.3038365810509,0.4844424251407954,22.833095720511437,-115.60785147593988,-166.20609188119013,58.08105113097321,135.14149766779067,1792.2992761023281,43.47001384480096,Cloudy
2024-07-18 09:35:14.510406,31570.527745450396,580.6826233426807,181.4923154303349,-52.36386961807538,1014.9928042987555,0.4349618133862784,-64.94212058969065,-96.49176892841982,74.77221915200946,-30.998681839799957,214.03758158352167,1671.9056790733844,79.93168864101519,Clear
2024-07-18 09:35:15.510406,29267.84769271904,463.1205417309442,168.47151703614423,-53.98443124212592,992.7461746232009,0.6805824010288813,80.15433736202573,136.4947690778522,-57.160767546540214,-43.25211339279789,133.07308566678608,2148.366277330574,77.45289388659477,Cloudy
2024-07-18 09:35:16.510406,29078.305039589144,521.1873097068813,272.8748207805479,-50.05891952542254,1008.2040625660153,0.3491356835082496,66.68918742219941,-110.68176855509672,73.19340227783294,-57.53441509949907,322.5078431715428,2220.241133745312,20.948043810351848,Stormy
2024-07-18 09:35:17.510406,29859.553647401153,517.9068883230403,258.23833592048976,-49.85912408976136,1017.4537833048809,0.4512430308209775,-2.6640848177867866,156.2288569860284,-67.86207367674764,-24.11519276189847,63.32517153066162,1763.2249588681857,32.18204378605716,Cloudy
2024-07-18 09:35:18.510406,30299.167783204775,472.3788863567343,60.48364062819709,-52.156535495697696,1005.5453666949618,0.3027845796530516,-14.033989676149517,100.7855993342622,-140.3756754786623,-28.843223370180496,285.00537201171716,1690.4508129786702,94.28665616117895,Stormy
2024-07-18 09:35:19.510406,29654.822503858395,586.94170059626,56.53022965891848,-45.43872989420262,1009.2349959536423,0.40204668307231767,-15.871698177579034,112.48917506151611,6.546786489627266,28.80523024312292,146.99538141008193,1669.0052109046455,82.84545322604792,Cloudy
2024-07-18 09:35:20.510406,31480.854977581326,580.3952887084703,45.33701781456675,-56.15136682994128,1003.6106513726246,0.5003727011246158,1.7003307419336693,-109.30152663844196,-62.685849683573934,-69.91081511470122,306.6531877080345,1803.1703912543906,65.12850785247122,Clear
2024-07-18 09:35:21.510406,28989.85937695451,545.0858869045941,299.18891768442677,-52.162302693945335,1029.8679680255689,0.7112935302932869,6.71745324931716,161.52297647749037,-132.92149683962953,60.035355483562,184.7937576280437,2049.045679953886,40.564195542173465,Clear
2024-07-18 09:35:22.510406,29331.76646575896,561.1948925938067,87.26443070838039,-43.71349721437757,1021.2618293578287,0.40123070378863745,-54.63063119881545,73.46230204556417,178.78494133202094,14.909772846393977,219.9734514375306,1843.7167636512595,81.33721225182143,Stormy
2024-07-18 09:35:23.510406,31757.279850591418,502.27307990162524,96.21639750457405,-49.221400230608765,1012.9496250246723,0.5438950700519742,-76.73744125835371,87.71469487706838,-169.19893322619896,-85.83146454029084,98.07135698617881,2029.9576210345085,53.875082990041534,Clear
2024-07-18 09:35:24.510406,30660.6622313389,487.689450032259,353.0710544873429,-46.83095174154064,1008.9541339350778,0.6163491197644431,18.386580384268157,-63.73755402830021,-42.273701810963075,67.30465397257396,313.5295972657564,2011.861929767558,13.381452313419828,Stormy
2024-07-18 09:35:25.510406,28829.711950854162,560.2880089879461,298.7972917202807,-51.93737709130872,1019.9055302335503,0.5660912589381037,-60.39658041790494,141.291719151559,134.29153178170475,-39.87577876290454,228.81961070637038,1901.500368988756,42.49532223147088,Stormy
2024-07-18 09:35:26.510406,29081.175129138803,505.1921054168512,195.3618185150504,-55.823298957840464,1008.4814736637644,0.421458378202486,9.636121499321604,11.17911883822191,-171.37323023221754,-7.520710202710944,328.5248143153253,1483.2906000096586,49.783542027552286,Stormy
2024-07-18 09:35:27.510406,29922.104336188593,519.205034816658,130.0635077388261,-54.07537315907097,1025.3403234286961,0.5526301970989129,-67.4244137060026,-27.76620666354364,25.77522743582844,-81.57225509138122,62.088173913337684,1689.1851782247904,76.2141954407463,Clear
2024-07-18 09:35:28.510406,30911.394011148426,520.9794251627518,110.43590310862706,-52.57310810637797,1019.4666136788071,0.5290831523043539,-4.457650948459033,123.99965211800901,97.01200761402805,80.59305893001306,106.4691485165127,2035.9964354822691,80.54073759856155,Clear
2024-07-18 09:35:29.510406,29061.363906172366,493.70224106959523,286.8844223973143,-44.11258454835331,1022.8026435919385,0.4628222676397987,35.4680975901359,-110.05948457791067,42.24593090212821,87.21607404294573,333.8580241830235,2288.632708371187,7.7745635202502665,Cloudy
2024-07-18 09:35:30.510406,29756.363181156532,423.75513255192345,296.2907139243139,-54.101840068021346,1009.637328050773,0.4892293014150737,-38.03840545288354,52.66171887985064,-27.57653442569358,4.051510182387858,320.2407927564757,2035.221661279635,23.791425437379964,Cloudy
