Timestamp,Altitude,Speed,Heading,Temperature,Pressure,Vibration,Latitude,Longitude,Roll,Pitch,Yaw,Engine RPM,Fuel Level,Weather Conditions,Altitude_diff,Speed_diff,Engine_RPM_diff,Altitude_roll_mean,Speed_roll_mean,Engine_RPM_roll_mean,Anomaly
2024-07-18 09:31:55.510406,29562.02324549894,564.8374269481181,17.367838218772896,-53.73178479029178,1026.274226392924,0.3820465517173504,-46.61991891576879,17.22092061202602,-93.93013984593968,41.866821690829056,349.5902373950117,2230.070777901926,57.418264384829484,Stormy,-150.51983303271845,-176.02004615488045,-474.8906872993207,29766.677709443542,464.1012597966167,2057.7137864742003,0
2024-07-18 09:31:56.510406,29411.50341246622,388.8173807932377,111.815843760025,-48.22722231312183,1017.2961760138604,0.5487030219486054,-47.41751686067882,167.42725477476375,114.06582994637506,0.1568400160682728,339.3732875161289,1755.180090602605,18.271538357088303,Stormy,-150.51983303271845,-176.02004615488045,-474.8906872993207,29766.677709443542,464.1012597966167,2057.7137864742003,0
2024-07-18 09:31:57.510406,30326.50647036547,438.64897164849447,357.26746590961807,-41.83396062254094,1023.0338468838956,0.4684049627115479,38.33617690639102,-56.08370700746852,35.6331783349805,-43.7655772670803,263.65789254624093,2187.8904909180706,22.75475990707824,Stormy,915.0030578992519,49.83159085525676,432.71040031546545,29766.677709443542,464.1012597966167,2057.7137864742003,0
2024-07-18 09:31:58.510406,29394.603939130087,508.3734117662918,330.3712424084883,-52.76273841507376,1007.8865616152216,0.5656403993679983,59.85602762817618,-103.38567687795732,-159.79499609228006,40.26808712953283,295.04078384776744,2213.9262722938165,82.92138737907712,Cloudy,-931.9025312353842,69.72444011779731,26.035781375745955,29710.871273987257,445.2799214026747,2052.332284604831,0
2024-07-18 09:31:59.510406,28837.56883939501,447.7015223612061,182.11498886011265,-49.13091054686443,1020.428630133671,0.5282655225946297,-56.78796253907892,-50.29867414320444,-87.04586702370614,-4.647905114554092,294.83818514320063,1734.516763843926,32.452498227135884,Clear,-557.0350997350761,-60.671889405085665,-479.4095084498906,29519.559749630193,464.9079685919974,2045.4445090186045,0
2024-07-18 09:32:00.510406,28873.79504103735,544.6279554852173,166.14690729856406,-51.08118660859174,1012.4816320741736,0.554552916267107,21.30263798092018,85.0478162679795,-156.04333164320877,8.215846220254747,314.96643360158686,2083.533336907605,28.582246879301863,Stormy,36.2262016423374,96.92643312401117,349.0165730636793,29035.322606520815,500.23429653757177,2010.6587910151159,0
2024-07-18 09:32:01.510406,29200.683769274023,485.9120356853896,197.19991825305937,-43.58996395656095,1014.3527227702097,0.5662555627966623,46.66854498061977,159.2907493092532,-79.58598259540004,-38.67757386681611,355.6716494512692,2297.1252893423266,44.2488653676304,Cloudy,326.88872823667407,-58.7159197998277,213.5919524347214,28970.682549902125,492.74717117727096,2038.3917966979527,0
2024-07-18 09:32:02.510406,29518.56482598914,516.0353199090295,22.66757180814205,-42.05423156926673,1033.4612254757592,0.5069258308032285,33.15490553107885,11.984939097798817,-108.5157265681412,89.3915985148281,152.21597749265138,2047.6460909793036,21.60333899863427,Stormy,317.88105671511585,30.12328422363987,-249.479198363023,29197.68121210017,515.5251036932121,2142.7682390764116,0
2024-07-18 09:32:03.510406,28857.912945716205,500.1280660358215,350.3150622980998,-51.50326601377368,1018.3787654415104,0.5331703506843338,80.31061247187992,-156.387761045659,-22.15329140066348,-61.98079713717301,247.14699617636327,1935.8883529966045,78.32377756743472,Cloudy,-660.6518802729333,-15.907253873207935,-111.75773798269915,29192.38718032646,500.69180721008024,2093.5532444394116,0
2024-07-18 09:32:04.510406,31745.756053231104,524.5595312806863,314.74700179296167,-54.84804602616597,1029.2511306305014,0.4312841088685671,-69.86011966588094,82.31228436950659,-59.82870508057266,-73.05096321195383,20.095043412651385,2076.981077964954,62.99928350372513,Cloudy,2887.8431075148983,24.431465244864796,141.09272496834933,30040.74460831215,513.5743057418458,2020.1718406469543,0
2024-07-18 09:32:05.510406,29878.22663185999,460.2109185712429,84.18022734346273,-51.66543308172608,1014.4605544743736,0.4984349348730835,-28.42868389164608,52.47596928806007,-11.882779179024167,48.534062272682434,189.94599303924736,1961.7456400265096,45.04906795339849,Stormy,-1867.5294213711131,-64.34861270944339,-115.23543793844419,30160.631876935764,494.9661719625836,1991.5383569960225,0
2024-07-18 09:32:06.510406,28646.97702534324,495.9951003543605,92.03542978150271,-44.52661029151453,999.4989690050908,0.5539938624331677,-60.73204934070133,30.980141438744624,130.97725932115418,-31.204471604921004,51.06013876773152,1966.858171567948,82.89739878503069,Stormy,-1231.2496065167506,35.78418178311756,5.112531541438329,30090.31990347811,493.58851673542995,2001.8616298531372,0
2024-07-18 09:32:07.510406,29292.73555951672,522.0459608876445,286.4706253519662,-44.482819152392295,1021.5991663633096,0.4381480891275847,-61.50958911882943,30.39890473324661,8.990038585096698,-83.80700925196051,127.98779377527411,1743.9069115967168,15.05190891603807,Clear,645.7585341734812,26.05086053328398,-222.95125997123114,29272.646405573312,492.75065993774933,1890.8369077303914,0
2024-07-18 09:32:08.510406,30422.88616446016,536.4186504821056,57.959147164614336,-53.98046261128842,1017.2161132149644,0.5270706916384119,-57.96009129629779,-145.3529037504236,157.8885530121022,-86.7101992817689,103.56196810050837,2294.0926654536406,10.85949797768846,Stormy,1130.1506049434392,14.372689594461121,550.1857538569238,29454.199583106707,518.1532372413702,2001.6192495394353,0
2024-07-18 09:32:09.510406,30468.48831856241,483.2170739987127,41.99491374556071,-46.31162307798989,1024.251849376021,0.6007547337260197,-40.9936207922653,151.11460056268413,-167.4997258109596,61.22528483013994,184.74192496343616,1608.4947684345789,50.260217669748776,Cloudy,45.60215410224919,-53.2015764833929,-685.5978970190617,30061.370014179764,513.893895122821,1882.164781828312,0
2024-07-18 09:32:10.510406,28381.07169707406,553.7612329366043,30.01955211894994,-50.93878203938993,1020.2938951854547,0.4684491839933158,-16.59094708258648,-79.06820684368678,-175.97246911588408,-12.29306477158957,246.4158559655876,1966.6997892631475,4.312345640487758,Clear,-2087.416621488348,70.54415893789161,358.20502082856865,29757.48206003221,524.4656524724743,1956.429074383789,0
2024-07-18 09:32:11.510406,30509.43303467141,487.2754600772754,308.3060039892963,-42.38167299967469,1002.4851768238982,0.6418335372514812,-33.162318304306,-20.589801282433967,171.1434234118732,-18.604297539525348,78.08208759741805,2171.8822614592564,22.49439360357372,Clear,2128.3613375973473,-66.4857728593289,205.18247219610885,29786.331016769294,508.0845890041976,1915.6922730523274,0
2024-07-18 09:32:12.510406,31490.86516742949,417.27493771403925,295.1108699728157,-46.03018776358329,1027.351243034183,0.3741554581282204,-52.37388510091652,52.77811129355664,50.2166554621966,-77.83980623265072,68.55152085587348,2020.0623343951745,32.79117457896442,Clear,981.4321327580801,-70.00052236323614,-151.81992706408187,30127.123299724986,486.1038769093064,2052.8814617058592,0
2024-07-18 09:32:13.510406,30677.17718607148,514.4905747504577,98.12084850216944,-43.12371899211027,1006.5605512227916,0.3142527682991132,47.96098409486439,53.96908051442438,-15.282918742469178,75.53625933349477,101.23800260944816,1775.7201361992652,95.86789706345428,Cloudy,-813.687981358009,97.2156370364184,-244.3421981959093,30892.491796057457,473.0136575139242,1989.2215773512323,0
2024-07-18 09:32:14.510406,28958.725430462648,501.09181505020206,223.8323118206613,-50.87090948035421,1008.768146933277,0.5316809582768216,-14.52660612571114,145.05481793290153,-119.19337992602996,-67.18285573436847,350.5206099515041,2338.922577982993,6.590810099757993,Stormy,-1718.4517556088322,-13.398759700255596,563.2024417837279,30375.589261321205,477.6191091715664,2044.901682859144,0
2024-07-18 09:32:15.510406,29925.113088084134,445.8624022405407,189.1833546747377,-48.46556423401554,1019.6517859620149,0.410747451865975,22.55074537878872,-104.49098551377918,-144.29598631402055,-74.02275274566176,25.967118685466943,2161.097545332104,89.17441521472375,Cloudy,966.3876576214861,-55.22941280966137,-177.82503265088917,29853.671901539423,487.1482640137336,2091.9134198381207,0
2024-07-18 09:32:16.510406,30557.832318770532,521.3547094043956,275.7011022552408,-53.9795874112013,1019.249240267021,0.5913228763875765,44.13556733341409,98.2747687369686,129.75113740890845,-17.717655952879113,102.74070237599358,2048.6213405624358,56.45656131083632,Clear,632.7192306863981,75.49230716385495,-112.47620476966813,29813.890279105774,489.4363088983796,2182.8804879591776,0
2024-07-18 09:32:17.510406,29779.74829331332,477.6685903829797,160.60698281399235,-50.03327628627389,1013.156860600212,0.5879459171611686,80.28585985308683,-7.094041934797275,160.11608233298404,-53.8380799508387,0.5325536597614855,2080.4685880109505,92.59757158109495,Clear,-778.0840254572104,-43.68611902141595,31.847247448514736,30087.564566722664,481.62856734263886,2096.729157968497,0
2024-07-18 09:32:18.510406,29367.31322045585,519.5427779473346,149.44876281718416,-54.01343381030313,1019.537414590609,0.213883174025755,82.17832938553508,52.40582132724612,-102.02631915723728,-26.68748682008973,236.28802597210017,2204.9687182294224,19.6517042164839,Clear,-412.4350728574718,41.874187564354884,124.5001302184719,29901.631277513236,506.1886925782367,2111.352882267603,0
2024-07-18 09:32:19.510406,29918.44812078006,510.38057020962697,115.7161252769401,-50.177815343352506,1021.0621693965652,0.4496687631498735,49.472323614351325,24.664087815103382,22.98435347723182,48.50750987778196,207.65457504565336,1937.4506273069496,73.0725502540545,Cloudy,551.1349003242103,-9.162207737707604,-267.51809092247277,29688.50321151641,502.5306461799805,2074.2959778491077,0
2024-07-18 09:32:20.510406,29871.583725117864,526.0812561601865,131.88177250126404,-48.30782341494606,1015.9908986053108,0.6029055531780234,-24.35373657499659,-132.8346637535605,-51.50182506651458,37.70936231105021,63.33095805831138,1948.0290254093,62.754946725841535,Cloudy,-46.86439566219633,15.700685950559546,10.57839810235032,29719.115022117923,518.6682014390494,2030.1494569818908,0
2024-07-18 09:32:21.510406,28196.920326650183,481.684094439944,287.3006855424653,-57.485085633847234,1034.5666622148117,0.1914211314218196,38.40568013788916,-36.79150417565961,-36.08819864853447,-80.12157830686486,204.6497391652232,1892.2799946394416,70.06004571937176,Stormy,-1674.663398467681,-44.397161720242536,-55.74903076985834,29328.984057516034,506.04864026991936,1925.9198824518971,0
2024-07-18 09:32:22.510406,30116.843031422508,510.2362543890524,117.62810765308946,-47.50869157137949,1022.7078260055516,0.4877495209284186,-37.58714856946109,17.188125630088933,39.1063224077588,44.37559568022729,318.2381165201344,2452.8966102774434,1.675269725587225,Cloudy,1919.9227047723252,28.552159949108443,560.6166156380018,29395.115694396853,506.00053499639444,2097.7352101087286,0
2024-07-18 09:32:23.510406,30186.50937000717,569.2888200399747,338.6714062711589,-54.91105716830364,1010.1119709821398,0.6063194357499284,-0.2615019455654419,161.5937861885973,44.497196753272505,26.35211052331701,118.27432179242032,1624.933100480325,62.56618347462316,Stormy,69.6663385846623,59.05256565092225,-827.9635097971184,29500.09090935995,520.4030562896572,1990.036568465737,0
2024-07-18 09:32:24.510406,29373.94637926845,528.7907079321411,150.25568667009128,-58.01267315571846,1014.6418123956148,0.4630452021498725,-86.41175479619679,169.71259443531386,109.0078401042955,37.66389121641292,166.61075235257675,1827.744663625791,27.892837090373888,Stormy,-812.5629907387192,-40.49811210783355,202.81156314546593,29892.432926899375,536.1052607870562,1968.5247914611866,0
2024-07-18 09:32:25.510406,30384.771827307843,512.5527925026444,159.15019374562576,-48.64327593461391,1026.5655773317826,0.3897653098621802,62.83656076840032,18.89746134196673,36.57323471796337,16.74672459267316,77.99366031816518,2090.5345047225965,94.25986313291904,Clear,1010.8254480393916,-16.237915429496752,262.7898410968055,29981.74252552782,536.8774401582535,1847.7374229429042,0
2024-07-18 09:32:26.510406,28938.92440808237,450.0036524447149,306.08374356719,-48.65147517554545,998.7178151756124,0.4384784524805156,-54.14813719234516,-107.31082919742074,-177.58293227170105,75.57335092778615,277.71137259879254,2238.7872290417536,80.26060569707352,Stormy,-1445.8474192254725,-62.54914005792949,148.2527243191571,29565.880871552887,497.11571762650027,2052.355465796714,0
2024-07-18 09:32:27.510406,28694.97833190137,552.299429101668,247.6105297593472,-54.75621155495442,1020.5296968454602,0.5434306182077575,36.87936192413521,92.58852974253956,-82.49491838688165,80.37176458094507,3.183626938982358,2166.878834584365,28.47015257409421,Clear,-243.94607618100054,102.29577665695314,-71.90839445738857,29339.558189097195,504.95195801634253,2165.400189449572,0
2024-07-18 09:32:28.510406,29867.88761485962,480.3375465449287,344.4630596699325,-54.52900345493408,1016.2297248189304,0.4990749369998173,20.184059865529093,-25.423047198804312,51.4925870937804,65.70799490741459,352.3855175548602,1949.4189923458491,7.623535778083468,Clear,1172.9092829582514,-71.96188255673928,-217.45984223851588,29167.263451614457,494.213542697104,2118.361685323989,0
2024-07-18 09:32:29.510406,30214.990593961804,505.8069736566154,296.0338093774102,-39.551049402051646,1015.1909952497092,0.233371242423521,-71.0929373506103,63.67115720510623,-41.22265849683865,31.536044126408957,21.668518585302607,2253.332485279761,23.74787338186012,Clear,347.10297910218287,25.469427111686684,303.9134929339118,29592.6188469076,512.8146497677375,2123.2101040699918,0
2024-07-18 09:32:30.510406,30115.61608162683,475.5617489425713,100.55126607732232,-49.0023595893209,1016.6850302736676,0.59613514150114,-26.140899090350736,146.67917232118236,-150.58193291340356,0.1175411583519974,308.4176356888145,1857.1071981716357,16.790497582710184,Cloudy,-99.37451233497268,-30.245224714044127,-396.22528710812526,30066.164763482753,487.2354230480386,2019.9528919324155,0
2024-07-18 09:32:31.510406,30304.58155573959,521.9749963163457,25.76261765114853,-50.59088665918449,1010.4139537146932,0.5608906630914924,76.86229856681831,96.33231266057976,80.3877053249239,70.58142550446627,169.3740987201497,2125.3259972839137,20.712836022755788,Clear,188.9654741127597,46.413247373774425,268.218799112278,30211.729410442742,501.1145729718443,2078.5885602451035,0
2024-07-18 09:32:32.510406,29440.987936166217,473.7333881160365,237.40230195122365,-51.94218162750537,1038.7938727697765,0.6078930207496835,-11.648295906274257,-11.991319890705228,149.04985158761343,-20.33472747383701,346.5240120713353,2062.0048562049005,65.55394546092113,Clear,-863.5936195733739,-48.2416082003092,-63.32114107901316,29953.72852451088,490.4233777916514,2014.8126838868166,0
2024-07-18 09:32:33.510406,30817.895210082366,476.3718617914208,224.72895829692123,-54.27711488866943,1018.9180307582442,0.4244620064972679,-4.094111940966712,-137.18643843090598,-141.01024075833237,-12.73579722145925,119.67878125294628,2020.443011920746,6.384157778570487,Stormy,1376.9072739161493,2.6384736753843185,-41.56184428415463,30187.821567329393,490.69341540793454,2069.2579551365197,0
2024-07-18 09:32:34.510406,29036.970785787496,494.7844887993249,238.38487424257093,-55.00099338775989,1025.4684640167163,0.5336613572233955,51.16631788969724,-141.21781676174436,-53.91687088718926,26.527150941861706,93.84686396460827,1939.2682283758809,72.36841878342916,Stormy,-1780.9244242948698,18.412627007904064,-81.17478354486502,29765.28464401203,481.6299129022609,2007.2386988338424,0
2024-07-18 09:32:35.510406,30923.08078268392,405.4409409926324,99.92618125487184,-57.7935632253242,1015.9267339076316,0.4213327240046664,61.70791078124631,-41.70867519600236,11.50664547670931,14.819604717348852,222.49432801239053,1771.1237181380168,67.49790644106504,Clear,1886.1099968964227,-89.34354780669247,-168.1445102378641,30259.31559285126,458.8657638611262,1910.2783194782144,0
2024-07-18 09:32:36.510406,29146.574092843955,621.9499957231084,7.991686908780489,-48.97259571158131,1008.8458596876844,0.2846062657440068,52.04480593596918,157.50458456477776,-64.55353124609391,-21.67535961175756,220.48157808608232,1964.8963711476629,0.1642515104753106,Clear,-1776.5066898399637,216.50905473047595,193.7726530096461,29702.20855377179,507.3918085050221,1891.7627725538534,0
2024-07-18 09:32:37.510406,28339.573606534883,606.3037730510188,116.85430585047672,-55.65492682069882,1008.7978992970832,0.5380988716832575,80.32082243914513,-113.12854878388258,-78.88412367671607,-50.89537094516895,340.63370535477026,2220.576884244483,41.89586196071452,Clear,-807.0004863090726,-15.646222672089607,255.68051309682028,29469.74282735425,544.5649032555867,1985.5323245100542,0
2024-07-18 09:32:38.510406,30444.866120852617,544.8704839515434,239.4283376421584,-55.934396268834966,1012.0709120281324,0.4851655296702939,-16.84908612635533,-105.12873352905632,41.45146926653928,-12.449146189639876,179.61378497283962,2057.2988939017623,1.8438706152684503,Cloudy,2105.2925143177345,-61.43328909947536,-163.27799034272084,29310.337940077152,591.0414175752236,2080.9240497646365,0
2024-07-18 09:32:39.510406,29353.818906246957,519.1588434672709,13.432602504319425,-50.82567888740879,1016.1892397203676,0.4877337585965413,53.42912461548752,85.78139248837437,156.1893126768705,-69.01867963797055,318.3724783870554,2046.004690534295,83.87691409532083,Clear,-1091.04721460566,-25.711640484272493,-11.29420336746739,29379.419544544817,556.7777001566112,2107.9601562268467,0
2024-07-18 09:32:40.510406,31721.81095014449,570.0130058878923,256.86946116039604,-48.993750190951104,1020.8759415150872,0.5488899486174285,48.31278612257384,-102.33225338328756,17.46888209708044,54.493428589102734,33.83502995683557,1760.7978851385533,89.64542170906893,Cloudy,2367.9920438975314,50.85416242062138,-285.20680539574164,30506.83199241469,544.6807777689023,1954.7004898582034,0
2024-07-18 09:32:41.510406,29907.088311594936,468.1138753158615,65.01322431674855,-52.69091516564929,1017.65321593413,0.5590826604839234,84.87013490121387,120.74516135808756,-99.59835339614644,89.82721370619282,142.8465888603141,2041.7825502219653,21.763575381598358,Cloudy,-1814.7226385495524,-101.8991305720308,280.984665083412,30327.572722662127,519.0952415570083,1949.5283752982712,0
2024-07-18 09:32:42.510406,29406.01338242024,544.2512172052514,84.79712188121289,-48.31605672464584,1018.8110785903964,0.3142484389800545,37.525685296294526,0.4292774205476632,-58.21705405770669,-43.54344230799734,181.7494671690885,1663.4808994627742,85.71008811329975,Stormy,-501.0749291746979,76.13734188938986,-378.30165075919103,30344.970881386555,527.4593661363352,1822.0204449410976,0
2024-07-18 09:32:43.510406,30489.98322433912,522.3179224465771,98.90327262459076,-46.099488107118205,1025.7187950989853,0.4610441889456618,-46.94091507560245,-45.58856613071001,-61.76590623765256,81.91977975089222,60.42505577782481,2027.8710557935692,57.66358620479392,Stormy,1083.9698419188826,-21.933294758674265,364.390156330795,29934.361639451436,511.56100498923007,1911.0448351594362,0
2024-07-18 09:32:44.510406,30815.532153854536,506.7715496927958,254.97651094980452,-47.96766044474524,1005.5727174836692,0.447615328544548,44.49089430354704,65.8778097266225,-54.15790895753975,-64.22389968504898,341.4968646216413,1660.787729247739,23.86448771118883,Clear,325.5489295154148,-15.54637275378127,-367.08332654583023,30237.176253537968,524.4468964482081,1784.0465615013609,0
2024-07-18 09:32:45.510406,30354.624134903454,563.1633293416644,271.1022494288069,-52.92036156901258,1014.7294000842676,0.5348557370863093,60.75921151078336,171.0028365303191,-78.75514319354357,-53.61645454680327,141.76850935523427,1898.0246380346296,52.03056648879995,Stormy,-460.90801895108234,56.39177964886858,237.23690878689058,30553.37983769904,530.7509338270125,1862.2278076919793,0
2024-07-18 09:32:46.510406,30495.10032044399,475.6017001828732,169.9920857893296,-41.35389148632473,1006.4554170812244,0.4831205037159277,10.835052606801838,178.89079578152308,-27.55817600436896,24.30534629428388,144.55397764623012,1709.5929052864824,13.196173092054108,Stormy,140.4761855405377,-87.56162915879122,-188.43173274814717,30555.08553640066,515.1788597391113,1756.1350908562836,0
2024-07-18 09:32:47.510406,29181.695888737584,446.96592595700383,128.14217083898,-54.83359187391886,1004.061892289158,0.5656981021215667,12.814633295289084,-107.05514490025688,-85.64139676501746,78.45637364855554,87.7929278931148,1913.5757405083784,84.79651634456164,Clear,-1313.4044317064072,-28.63577422586934,203.98283522189604,30010.47344802834,495.24365182718066,1840.3977612764968,0
2024-07-18 09:32:48.510406,29169.81801328829,542.0523117945384,311.67662482919576,-45.54685962943006,1015.7137261545528,0.4572809496754337,-81.78370224030888,-49.65922575151268,92.78277751522802,-74.45586659771041,197.3142681738014,2016.833216226967,44.08378491490767,Cloudy,-11.877875449292333,95.08638583753452,103.25747571858847,29615.538074156622,488.20664597813857,1880.0006206739424,0
2024-07-18 09:32:49.510406,30979.48635258756,454.8241786013809,329.367649880145,-50.21064814828481,1000.4332681647368,0.5807157129149134,-76.66314729722484,144.5718530344692,-7.039498181605325,-58.99964502610247,48.85566789268951,1944.633881824873,88.93588437004092,Clear,1809.6683392992672,-87.22813319315748,-72.19933440209388,29777.000084871146,481.28080545097447,1958.347612853406,0
2024-07-18 09:32:50.510406,29134.07703076953,547.6129902710591,232.33453504475816,-47.2337881042638,1015.0789125405748,0.7220731167203464,-58.976607027636334,46.54885522857683,-68.60474010535415,-58.9515291236348,268.5028767521678,1902.493103527136,23.710817642919316,Clear,-1845.4093218180278,92.78881166967818,-42.140778297736915,29761.12713221513,514.8298268889929,1954.6534005263254,0
2024-07-18 09:32:51.510406,30958.527590186048,486.1459838471177,198.831473397325,-51.09608813728613,1005.698319951623,0.6070888789667856,73.26268117468243,73.05121180090376,-33.16014115394083,-77.54987025625059,218.87287713236964,1915.503411022297,80.6010115253098,Cloudy,1824.4505594165166,-61.46700642394137,13.010307495160987,30357.363657847713,496.1943842398527,1920.8767987914355,0
2024-07-18 09:32:52.510406,32295.415644828325,449.0704606315797,10.563660068168698,-48.506415766318746,1011.9265546443276,0.4225049771030239,-1.8452798176864744,-95.61005649303556,-21.999502029921643,-60.93567288630543,315.4808597154189,1851.6478024196824,33.60287244307444,Cloudy,1336.888054642277,-37.075523215538,-63.855608602614666,30796.006755261304,494.2764782499189,1889.8814389897052,0
2024-07-18 09:32:53.510406,30626.16517895383,492.99512257746176,149.9814046400834,-53.32078421409535,1012.0806775873168,0.5098470275531231,-22.426750811128244,119.9004829629825,171.94582607367516,88.06371561449674,334.1521826916164,1913.065990432022,99.31019782502555,Clear,-1669.2504658744947,43.924661945882065,61.41818801233967,31293.369471322734,476.07052235205316,1893.4057346246673,0
2024-07-18 09:32:54.510406,29565.95923239341,463.1915169629026,113.69997186571524,-56.8427165250003,1022.5711089175818,0.490968320312757,-38.57697307561706,-179.156621504447,-5.328085220991312,-33.97881617481481,325.861296640405,2408.113663304471,57.06059867573795,Cloudy,-1060.2059465604216,-29.80360561455916,495.0476728724491,30829.18001872519,468.4190333906481,2057.6091520520586,0
2024-07-18 09:32:55.510406,31656.505426298638,430.1298689044544,337.011296398988,-48.04695883456389,990.5465171981922,0.4370774096040476,64.69095313947491,155.84453507029065,-47.71370037234934,28.806849692235065,139.3757230827415,1730.755889173094,82.40443941030162,Clear,2090.5461939052293,-33.06164805844821,-677.3577741313773,30616.209945881958,462.1055028149397,2017.3118476365291,0
2024-07-18 09:32:56.510406,29175.427077029828,529.4009081963445,180.9240906696876,-54.596699055009765,1012.3528006059912,0.4578777733916072,51.48863745092521,167.79210063075254,101.6274639567049,46.900952277960045,169.79388493377357,2068.0948128300934,48.25137524187471,Clear,-2481.0783492688097,99.27103929189013,337.33892365699944,30132.630578573957,474.2407646879006,2068.9881217692196,0
2024-07-18 09:32:57.510406,29911.42323386135,542.5663298411514,206.7656154797549,-47.88726257131351,1034.549078513228,0.2905916529469252,85.45635578383366,-147.7395964618774,177.1013937989547,0.274450545462912,350.5926227900828,1791.398464077328,60.858668137675295,Cloudy,735.996156831523,13.165421644806884,-276.6963487527653,30247.78524572994,500.69903564731686,1863.416388693505,0
2024-07-18 09:32:58.510406,29944.249523012542,441.1354776541503,229.97964715867388,-41.80589051972373,1011.0012695438994,0.5619615931220139,0.0370773649030269,13.208627127634458,173.54058981803672,33.98841002078463,78.52465645554875,2030.6543079199728,16.629773013918037,Cloudy,32.826289151191304,-101.43085218700111,239.2558438426447,29677.033277967905,504.36757189721556,1963.382528275798,0
2024-07-18 09:32:59.510406,29747.964008427047,500.7985950862016,97.96927842839676,-50.202543107916014,1015.60553883478,0.5955361038368548,6.020917964235622,148.17918318517786,-67.46528070787751,77.5212636280846,294.6430139857412,1900.354112461356,97.89296053003798,Cloudy,-196.28551458549555,59.66311743205131,-130.30019545861683,29867.87892176698,494.8334675271679,1907.4689614862189,0
2024-07-18 09:33:00.510406,29559.261950189702,498.8722578047661,293.21579060877895,-51.16438305307142,1002.815501524301,0.5552249537902896,85.8426573931853,-22.870986671390284,-83.2566152451765,19.773031125571805,197.69480168505157,1906.803314005905,47.32472090975642,Cloudy,-188.70205823734432,-1.926337281435508,6.4492015445489415,29750.49182720976,480.26877684837285,1945.9372447957446,0
2024-07-18 09:33:01.510406,29861.6935220744,510.5408745364254,38.41054463999162,-48.30804046453634,1011.8805492459594,0.4792634876193895,-85.65159993271462,69.44334743650893,83.66153341947086,46.04540620958795,206.7214768691954,2044.691655777445,44.84087167368149,Stormy,302.4315718846992,11.668616731659313,137.88834177154013,29722.973160230384,503.40390914246456,1950.6163607482351,0
2024-07-18 09:33:02.510406,13269.517615957911,521.1001141451162,76.47269609321306,-66.21129983333033,958.4476628988068,0.3294366201907118,45.52443502981217,-89.10048673906832,29.726309652697974,76.71078655970868,27.109170307882376,1277.318030223362,52.72177696938887,Stormy,-16592.175906116492,10.559239608690802,-767.373625554083,24230.157696074006,510.1710821621027,1742.937666668904,1
2024-07-18 09:33:03.510406,28904.39257704022,573.0646424749665,118.0740082739848,-54.13931800229847,1008.0255562683705,0.6563852508114679,-62.42313934941494,-88.54313576718802,-93.4888728030864,21.089877368709068,43.00190941424233,2125.0915598205097,83.11282422442038,Stormy,15634.874961082309,51.96452832985028,847.7735295971477,24011.867905024177,534.9018770521694,1815.700415273772,0
2024-07-18 09:33:04.510406,31647.23744419568,494.1661383423645,327.71208309324004,-53.37676351152804,1024.0075492925166,0.5965219123754382,87.37799720400318,-104.17499170464554,-95.41604114043749,-56.64957967893271,176.78218878920794,1872.523219320653,41.35576561450082,Cloudy,2742.8448671554615,-78.898504132602,-252.56834049985673,24607.049212397935,529.4436316541493,1758.3109364548416,0
2024-07-18 09:33:05.510406,30013.220089475883,518.017492007964,210.15878209744395,-53.895789754478784,1032.2176361352256,0.384464860767932,-4.484898150252306,-132.5292558358267,174.88849572795357,75.63208404861172,217.37892073346015,1677.7536731455084,59.65268031164416,Clear,-1634.0173547197992,23.85135366559956,-194.76954617514457,30188.283370237263,528.4160909417652,1891.7894840955569,0
2024-07-18 09:33:06.510406,30490.53079866541,500.88774066360816,264.117870670198,-55.301571041956656,1015.7935608065856,0.5356211921063201,82.68342385452192,124.08232896671107,26.27303527454077,-57.29381453596805,158.91302307248336,1772.326079507445,29.5712202419231,Clear,477.310709189529,-17.129751344355896,94.5724063619366,30716.99611077899,504.35712367131237,1774.2009906578687,0
2024-07-18 09:33:07.510406,29677.87046185044,527.9677891008077,255.71055936428613,-54.71861557482558,1012.5578368684633,0.4415952024491731,32.91335299179747,-146.89229629554072,43.85266641122331,-46.53168180109624,188.12535049189745,1531.7085762527622,2.381769485177321,Stormy,-812.6603368149699,27.080048437199594,-240.6175032546828,30060.540449997246,515.6243405907935,1660.5961096352385,0
2024-07-18 09:33:08.510406,30967.496922231137,587.7350784962432,278.70226111383334,-55.54134393786658,1009.508732710705,0.4907858708223562,67.62303465254689,-36.843561164897466,-43.32673941853821,-12.831264886771024,274.6943952746387,1875.044340588292,73.80931444092354,Stormy,1289.6264603806958,59.767289395435455,343.3357643355298,30378.632727582328,538.8635360868866,1726.3596654494997,0
2024-07-18 09:33:09.510406,31455.36085505284,344.73938461206546,263.2458037782502,-51.54893782948157,1002.0917180522626,0.4654116721622782,84.61520004454783,-106.42437610292136,-138.64582547943334,59.53726300175913,155.2445046997505,1723.7074538086024,16.60040700022728,Stormy,487.8639328217032,-242.99569388417774,-151.33688677968962,30700.24274637814,486.81408406970564,1710.1534568832187,0
2024-07-18 09:33:10.510406,29412.882429158013,550.5330146428288,110.87307945811038,-48.65655273871519,1027.0553502254525,0.5637837413766114,-79.76015886366937,-60.55229069468753,95.36090730321564,-25.12059138820348,210.18171258934277,1449.6296273832272,29.414710085778385,Stormy,-2042.4784258948275,205.79363003076332,-274.0778264253752,30611.91340214733,494.33582591704607,1682.7938072600407,0
2024-07-18 09:33:11.510406,29493.17248556413,511.4646614481328,71.95098822143046,-51.11218892760992,1006.0031836881452,0.6366679037541974,-75.71745650015174,-4.268099346086018,123.44342374597149,71.75934247404678,189.2696691564192,2004.3190816643207,90.56595618465248,Clear,80.29005640611649,-39.06835319469599,554.6894542810935,30120.47192325833,468.91235356767584,1725.8853876187168,0
2024-07-18 09:33:12.510406,29342.16678118488,518.7589148038045,281.3402661857916,-47.39731733243883,1002.2909228870808,0.353335796923756,5.005543891922699,4.602000830395724,2.6859925202055024,-75.43515645059189,53.35966056360794,2244.9167512022123,63.95313421558768,Clear,-151.00570437925126,7.294253355671685,240.59766953789153,29416.073898635674,526.9188636315889,1899.6218200832536,0
2024-07-18 09:33:13.510406,29872.722074232755,518.2761471037529,247.00186098809823,-50.58607786394198,1030.169205135602,0.5286497078377823,49.67947304695119,167.71148815742367,-83.59421626046513,-26.978528598174314,225.85268685127485,2229.8056236996545,72.7876821088437,Clear,530.5552930478771,-0.48276770005156777,-15.111127502557792,29569.353780327252,516.166574451897,2159.680485522063,0
2024-07-18 09:33:14.510406,28835.884578502348,400.5320347432301,222.12625337666216,-58.30444580333588,1011.2037617824176,0.3657528494193857,80.69312104540779,139.6058272863521,50.64045077664116,-13.567805516370242,65.47117162219064,2153.6931957184115,4.211947342864875,Cloudy,-1036.8374957304077,-117.74411236052282,-76.11242798124294,29350.25781130666,479.1890322169293,2209.471856873426,0
2024-07-18 09:33:15.510406,29785.65383576577,489.751476426615,208.4596679094651,-39.696132744482526,1018.4678364653006,0.3019784291237061,-76.76852943413851,-17.67708276055066,75.83791171110286,-85.16833949396326,127.79319749899514,1947.219501404567,82.45521790165566,Clear,949.7692572634223,89.2194416833849,-206.4736943138446,29498.08682950029,469.51988609119957,2110.239440274211,0
2024-07-18 09:33:16.510406,29889.717732040262,485.63149340777073,157.66555225308903,-48.49607105966107,1012.8896998164616,0.2581996442299623,-42.19719738804359,-167.97308961812104,-70.22138029167043,-35.957800547120684,79.10699901399315,2065.277666637526,42.33915626561353,Cloudy,104.06389627449244,-4.119983018844266,118.05816523295925,29503.75204876946,458.6383348592055,2055.396787920168,0
2024-07-18 09:33:17.510406,15792.293017634816,346.8283198888429,242.84375478860488,-46.24375919799299,985.1379824726686,0.9588271235256014,-8.757765087882106,140.79906324754592,-26.852748132730422,1.5721126786209538,13.987860725747542,1993.1802401913048,70.92110842340902,Stormy,-14097.424714405446,-138.80317351892785,-72.09742644622133,25155.888195146952,440.7370965744097,2001.8924694111329,1
2024-07-18 09:33:18.510406,28953.101366008348,469.14585306479086,172.41199615309986,-51.73912373823717,1030.7843808624273,0.5617203484163723,4.736680645346837,-68.42393272925196,156.65882925361643,-29.44866162515106,178.48353055936792,2188.1700937800983,78.73695698836309,Stormy,13160.808348373532,122.31753317594797,194.9898535887935,24878.370705227808,433.8685554538017,2082.2093335363097,0
2024-07-18 09:33:19.510406,29852.19325174829,486.78443656958245,152.29886904729946,-45.17831476603819,1024.5678839523696,0.4557094833187176,-72.41087097416009,123.29480348008394,-10.021602327224429,4.56847338340819,162.6257012164285,2007.3746685234448,50.61397692751646,Cloudy,899.0918857399411,17.638583504791598,-180.79542525665352,24865.862545130483,434.25286984107225,2062.9083341649493,0
2024-07-18 09:33:20.510406,28589.41310096395,536.7156086746088,307.02353641689695,-53.24182519281066,993.4641505545997,0.5188093480579749,-15.509495639305868,-92.908394032905,-76.7142847714223,40.362300745553256,280.7174537998539,2075.5259726739773,96.92810586779822,Stormy,-1262.7801507843396,49.93117210502635,68.1513041505325,29131.569239573528,497.54863276966097,2090.3569116591734,0
2024-07-18 09:33:21.510406,28942.32624626054,577.6998164592126,161.56741574821993,-55.64232806783848,1012.1620044267568,0.5232357283804107,-43.86374415483318,10.565553115549363,13.29599606887524,-87.36945373767371,60.06621771099961,2019.4179249020544,96.1500116106482,Stormy,352.9131452965921,40.98420778460377,-56.108047771922884,29127.977532990928,533.7332872344682,2034.1061886998257,0
2024-07-18 09:33:22.510406,29547.287555684336,432.8979695208045,327.0935303279027,-49.04624285654308,1022.1281484468066,0.5165000339263923,55.36367291047398,-48.40021528052032,-138.16343185056178,78.8517684822333,141.16973090451455,2289.8385040694434,17.4495709282934,Cloudy,604.9613094237939,-144.80184693840806,270.42057916738895,29026.34230096961,515.7711315515421,2128.260800548492,0
2024-07-18 09:33:23.510406,32352.7430205002,427.4272585436825,45.02297712056584,-47.0768277623602,996.2969535234348,0.5189351343123769,41.02856837124034,-178.1510534095552,-96.72593829556978,-59.425855195520974,162.7431370391831,2245.245262291954,75.56460827458766,Cloudy,2805.455464815863,-5.470710977121996,-44.59324177748931,30280.785607481692,479.3416815079001,2184.833897087817,0
2024-07-18 09:33:24.510406,29755.928879600982,464.31249628080775,8.467498199632901,-37.150141355277775,1009.3861725223396,0.6426916095159374,32.194070565199,14.68594504444519,28.907057311791988,16.407400913136186,289.33732624929377,1555.5853500611288,82.95513362413135,Stormy,-2596.814140899216,36.88523773712524,-689.6599122308253,30551.986485261838,441.5459081150984,2030.2230388075088,0
2024-07-18 09:33:25.510406,30408.713619191523,556.488694685597,188.92669872448204,-51.86941939637717,995.9694374820898,0.4777968719195097,-56.8873480505174,152.67512043367103,-177.65439247796667,-14.658273903695772,281.1814409226441,2227.8714547866184,34.2376772817637,Stormy,652.784739590541,92.17619840478926,672.2861047254896,30839.1285064309,482.7428165033626,2009.5673557132338,0
2024-07-18 09:33:26.510406,29899.756907679297,560.3046819859941,38.025032784998906,-46.805198596395286,1025.0053157741454,0.4625720140644665,49.73644781418585,79.71153295770841,-60.68940061631578,-2.252398588458945,2.224718359505582,1767.160228319974,6.815772677428544,Clear,-508.9567115122263,3.815987300397069,-460.71122646664435,30021.46646882393,527.0352909841331,1850.2056777225737,0
2024-07-18 09:33:27.510406,30236.117333475824,500.6381713940425,158.9824370098575,-51.52731217515176,1016.360165377312,0.5799648881106797,-57.21156725770859,30.669893477682397,16.238449810948566,-35.38817917224584,119.74174305090952,2219.6608978790478,73.74552448286141,Stormy,336.3604257965271,-59.66651059195158,452.5006695590737,30181.529286782214,539.1438493552114,2071.56419366188,0
2024-07-18 09:33:28.510406,30147.79381819355,519.7941819418855,25.54385207486054,-46.22487895010632,1015.8206023544132,0.6049504969210225,-16.00710358849375,-45.47723560456663,-170.2241305886773,-50.291695734398246,300.2387040686845,1684.659973393042,63.02284463480712,Cloudy,-88.32351528227446,19.15601054784304,-535.0009244860057,30094.556019782893,526.9123451073075,1890.4936998640212,0
2024-07-18 09:33:29.510406,29970.249862837496,428.4339533669759,339.0919149302553,-48.7786487981468,1032.7722138607196,0.6188932843873033,34.55785418818232,170.9723599869668,-121.627516209247,-10.085641004130238,94.77324066377383,2010.1462743763675,12.9505948457866,Cloudy,-177.54395535605363,-91.36022857490963,325.48630098332546,30118.05367150229,482.9554355676348,1971.489048549486,0
2024-07-18 09:33:30.510406,29635.62103832781,541.7799801279552,91.9427227975338,-57.10213155486643,1010.499051420156,0.4466964303751786,69.21401666358287,22.087468240477392,-57.53942037285394,88.59677318226042,108.51365224584696,2064.927895636465,26.26807555076136,Clear,-334.62882450968755,113.34602676097933,54.78162126009761,29917.888239786287,496.6693718122724,1919.9113811352915,0
2024-07-18 09:33:31.510406,28603.425982565703,483.8489433393248,164.6738549202588,-54.051070372270296,1012.2226368069304,0.4749750865537147,-89.4552337186208,4.36300444187188,-41.61805279100344,-20.300612571322446,356.22005816272235,1790.786035588333,43.17938589706104,Cloudy,-1032.1950557621058,-57.93103678863042,-274.141860048132,29403.098961243668,484.6876256114188,1955.2867352003886,0
2024-07-18 09:33:32.510406,29399.67365252079,456.5933519488385,56.36625342577944,-45.94943060232891,1002.4301996810046,0.3411725850523948,-85.51726686196118,127.06852504987654,93.75441224040604,75.09382607421043,333.2383184859444,2336.387801196486,91.53957519531524,Clear,796.2476699550862,-27.255591390486302,545.6017656081531,29212.9068911381,494.07409180537303,2064.033910807095,0
2024-07-18 09:33:33.510406,30972.75912156793,399.9308462909969,81.94253353638176,-55.87993684307305,1024.4061761639082,0.5147436827725221,15.685578196909802,-149.90703687366465,-109.95797461089244,-66.97962757251346,320.8762107964717,1871.8945068942844,59.33287918871598,Cloudy,1573.0854690471424,-56.66250565784162,-464.4932943022018,29658.619585551478,446.7910471930536,1999.6894478930346,0
2024-07-18 09:33:34.510406,28671.52859571225,536.2806825048593,159.91930453272366,-56.04003980115536,1014.0375140330966,0.4394996253946928,50.23567315286431,3.467728288288498,49.99672956800046,12.566002201988738,201.7656188342564,2097.2654410653963,7.474252330127495,Cloudy,-2301.2305258556808,136.34983621386243,225.3709341711119,29681.320456600322,464.2682935815651,2101.849249718722,0
2024-07-18 09:33:35.510406,30067.17081474917,518.7663098381597,340.23250341229675,-52.20683195149268,1006.1751886601298,0.5810937369819433,37.63106483872811,112.29566526608278,-24.605309010447684,4.448699362065298,39.97984606663899,1922.7598373379344,28.293641932308063,Clear,1395.6422190369194,-17.514372666699614,-174.5056037274619,29903.81951067645,484.9926128780055,1963.9732617658717,0
2024-07-18 09:33:36.510406,28256.14189120601,472.511809293962,334.9922263462777,-54.58931166506224,1027.506978082694,0.376833096776587,-54.944002432725895,-121.94078432759088,59.1268190767895,8.443994158655016,48.59035660861569,2011.3081861176368,61.20140302662639,Stormy,-1811.0289235431592,-46.2545005441977,88.54834877970234,28998.280433889144,509.1862672123272,2010.4444881736556,0
2024-07-18 09:33:37.510406,29910.553634620766,497.5608233943809,269.2590532840228,-45.14774086688597,1013.5172745046966,0.7704591235944043,-61.46204523338759,63.42327504101431,93.8640585546512,-62.83497063252371,13.344374837226349,2113.0441961840475,68.3793970439827,Cloudy,1654.4117434147556,25.0490141004189,101.7360100664107,29411.288780191982,496.2796475088344,2015.7040732132064,0
2024-07-18 09:33:38.510406,31167.740235457964,546.2809921688271,131.9459133842304,-51.73886146720693,1032.1559265400322,0.4537773454996277,-79.63292083080387,125.31919052917044,128.07101086511472,-53.26198235289565,259.74250984854143,2052.23652992152,63.43045565540625,Cloudy,1257.186600837198,48.720168774446165,-60.80766626252762,29778.14525376158,505.45120828572357,2058.862970741068,0
2024-07-18 09:33:39.510406,28465.353221470657,455.9595852272508,102.91230372071313,-53.56357971453336,1015.8719897215854,0.6925394347811709,-15.00986652810397,-104.69653032305406,-73.56117324889357,-6.762326500516878,23.68789303610765,2068.2777047657023,32.15089711892146,Clear,-2702.387013987307,-90.3214069415763,16.04117484418248,29847.882363849796,499.9338002634865,2077.8528102904233,0
2024-07-18 09:33:40.510406,29979.811639452542,506.9280461982716,102.14595804412302,-48.0605091286178,1023.4747629842168,0.4523550752615647,83.50380872559157,-122.43876210513852,-138.18684670691482,70.00850435277414,18.13685450076381,2055.449657652053,16.71263224089399,Clear,1514.4584179818848,50.96846097102082,-12.828047113649518,29870.968365460387,503.05620786478335,2058.654630779758,0
2024-07-18 09:33:41.510406,30076.241354002068,541.0254782415923,2.1579217001159323,-60.7007739435158,999.105484551816,0.5218891887079052,84.68928629343898,-73.33726196356092,-108.28735784241016,-68.69062706726127,218.2938939018612,2181.1418725033286,34.8322694134788,Stormy,96.42971454952567,34.09743204332068,125.69221485127582,29507.135404975084,501.30436988903847,2101.6230783070278,0
2024-07-18 09:33:42.510406,30363.240581452585,403.1701014388052,318.5442019082013,-48.96667825204138,1014.2219859172752,0.5828613806423247,87.68763767190237,-113.5634489378181,-49.52762845069975,-33.41729334723578,321.83200590361605,1798.550927140594,47.44301553370561,Cloudy,286.9992274505166,-137.85537680278708,-382.5909453627346,30139.76452496907,483.7078752928899,2011.7141524319916,0
2024-07-18 09:33:43.510406,30425.89695068637,501.7568085561696,286.94100824320344,-45.4773573754461,1010.5152269676138,0.4300722349108434,-9.930239891752564,162.56954811583165,-88.38712354740382,-28.72862565111609,106.9206966512716,2149.3672218938127,5.850230162496228,Stormy,62.65636923378406,98.58670711736437,350.8162947532187,30288.459628713677,481.98412941218925,2043.020007179245,0
2024-07-18 09:33:44.510406,29084.866717619312,593.7138205930822,353.7830397215413,-54.14307433646733,1023.3949814830916,0.2429746445932789,-58.88318557680503,-113.6356538964535,24.836098992086164,60.7012323263252,91.26288665659646,1927.50010817728,35.65491236442158,Stormy,-1341.0302330670565,91.95701203691266,-221.86711371653269,29958.00141658609,499.54691019601927,1958.4727524038956,0
2024-07-18 09:33:45.510406,31510.44703236669,500.493700073393,115.43311854087956,-56.11534817036858,999.095935036775,0.5894918712951306,-3.047770265718583,-172.282575818393,-10.885279042942386,53.4950953899546,20.87457906652647,2035.862251669726,43.63166613802003,Cloudy,2425.580314747378,-93.22012051968926,108.36214349244597,30340.40356689079,531.9881097408819,2037.5765272469396,0
2024-07-18 09:33:46.510406,30238.215251586484,504.09610740083485,247.08815399656908,-48.4453217579751,1019.038982302233,0.61221276533188,23.458119274616266,12.845165604336728,-30.03412139460832,-14.725026521454154,159.12627333536813,2024.8733048496624,46.35372270074585,Stormy,-1272.2317807802065,3.602407327441881,-10.988946820063575,30277.843000524164,532.767876022437,1996.0785548988895,0
2024-07-18 09:33:47.510406,29996.999876231224,432.4284972259017,220.40320676433012,-53.86460845882632,1027.148726938607,0.6604911899970021,-13.783632362365992,-18.330426958330836,152.84326532947262,71.2396068420702,318.6473956721455,1912.023206112664,96.32872359896892,Cloudy,-241.2153753552593,-71.66761017493315,-112.85009873699846,30581.887386728136,479.00610156671,1990.9195875440175,0
2024-07-18 09:33:48.510406,28931.353832421053,463.8416682923215,64.92365280048897,-52.85388612234987,1006.8191229938126,0.4775040768515025,-53.5642823343833,77.78916132916095,-113.0838074741948,-21.51238784096688,38.15452493430917,1826.277251402103,15.917942926052644,Stormy,-1065.6460438101712,31.413171066419807,-85.74595471056091,29722.189653412923,466.78875763968625,1921.057920788143,0
2024-07-18 09:33:49.510406,29203.307464288933,508.4903531912579,119.40153822451956,-57.12890541579036,1026.4031830864417,0.6539704429369131,75.37744377039121,-79.95899122798225,-65.33383480203425,-12.025857963835024,47.20917240252454,1828.864742237431,39.62126129438881,Clear,271.9536318678802,44.64868489893638,2.587490835328026,29377.220390980405,468.25350623649393,1855.7217332507328,0
2024-07-18 09:33:50.510406,30051.39281856572,553.6128430286053,300.6458481993567,-53.22688260935842,1005.8066835223384,0.6806100228394223,-39.95589664533146,45.3934818614614,-13.02358559274495,-79.13858100882747,95.06525504160092,1706.203748290717,63.49345305859484,Stormy,848.0853542767873,45.122489837347416,-122.66099394671414,29395.35137175857,508.64828817072845,1787.1152473100835,0
2024-07-18 09:33:51.510406,32183.10323294256,528.5566342024106,267.4083550225367,-51.18559675182758,1013.361172698334,0.4187311808820388,-10.323974927579911,143.20874576980702,154.75401982500705,63.176279934603855,179.6251562181842,2193.5327191065885,5.764673821368604,Stormy,2131.710414376841,-25.056208826194734,487.32897081587157,30479.267838599073,530.2199434740916,1909.5337365449122,0
2024-07-18 09:33:52.510406,29791.87233723083,544.4841286494167,161.20809597122033,-48.0471929754528,1011.6582758900604,0.4126411299856958,-75.05848134711492,-139.7094532246126,-140.03896675788894,-77.97148739810821,274.2537028360131,2026.4376543728963,84.23099581634267,Cloudy,-2391.230895711731,15.927494447006097,-167.0950647336922,30675.456129579703,542.2178686268111,1975.3913739234006,0
2024-07-18 09:33:53.510406,31784.142127923376,549.5749126719536,350.8499050621008,-47.48433177893787,1012.1956964360688,0.6820363233036978,-42.64439004774356,134.9343104297647,-160.337430838093,-36.475118765431134,111.2758782268556,1870.0284341637584,34.37995346775524,Clear,1992.269790692546,5.090784022536923,-156.40922020913786,31253.039232698924,540.8718918412605,2029.9996025477478,0
2024-07-18 09:33:54.510406,29157.423468673354,516.0426307788158,277.3468416103903,-52.54241923805219,995.4866747764846,0.5199022457411944,20.68144559894857,-144.61286141409062,150.0370134220314,-8.925266754356059,73.67330623166066,1867.1345874660417,44.19759411554492,Clear,-2626.718659250022,-33.53228189313779,-2.8938466977167536,30244.479311275853,536.700557366729,1921.2002253342323,0
2024-07-18 09:33:55.510406,30360.262317047825,437.8125917926153,317.1389734626784,-44.705420723947455,1006.2068725820054,0.4906567481661754,64.1612703732805,-51.60958856399307,7.548003365978872,85.4104132396507,226.2976232646068,2270.1540864715266,56.74239787581119,Stormy,1202.8388483744711,-78.2300389862005,403.01949900548493,30433.942637881515,501.1433784144618,2002.4390360337754,0
2024-07-18 09:33:56.510406,30831.227131950396,436.7118183176203,137.27108796988878,-48.54249827507587,1001.8734759836218,0.2769485441559188,21.125020889335342,-47.35561211016616,-42.48776504327921,-21.877048112923603,118.08187433050544,2244.707884799129,10.96480986532865,Clear,470.96481490257065,-1.1007734749949805,-25.44620167239782,30116.304305890528,463.52234696301736,2127.3321862455655,0
2024-07-18 09:33:57.510406,29579.862118416724,423.779851852725,12.285677677822685,-54.92662734313226,1004.3354711354048,0.4937812198538958,-73.60259191711589,-22.65738659331396,75.741335363801,-57.071897102356026,290.89201033700425,2247.223533315687,96.58377944407128,Stormy,-1251.365013533672,-12.93196646489531,2.5156485165580307,30257.117189138313,432.76808732098715,2254.028501528781,0
2024-07-18 09:33:58.510406,28047.9763977655,549.0441761329331,186.7036304780885,-48.3238033329242,1005.385494226114,0.5552776990614563,-77.59139594470888,49.47460703396618,101.32882123728132,51.292456341771015,333.52006417524564,2009.1147050106133,50.14879018520399,Clear,-1531.8857206512257,125.26432428020809,-238.10882830507353,29486.355216044205,469.845282101093,2167.015374375143,0
2024-07-18 09:33:59.510406,31335.87561887985,594.1435666346094,214.5268649337575,-50.83281372049341,1018.664722933996,0.376891224808863,-54.46932208087683,25.87891796779911,-166.61153806299737,-57.96099786186369,114.95338782496104,2015.0895982490904,7.013258022575608,Clear,3287.8992211143523,45.09939050167634,5.97489323847708,29654.571378354023,522.3225315400895,2090.47594552513,0
2024-07-18 09:34:00.510406,28248.748827985637,537.4617970648338,9.597105957562723,-47.883918086274505,1016.8179119867442,0.4785780248625325,77.87758284411728,74.17225435578158,66.72406519951699,37.57023278253102,20.91472106622477,1698.3617426233425,65.95134777808298,Cloudy,-3087.1267908942136,-56.68176956977561,-316.7278556257479,29210.86694821033,560.2165132774591,1907.5220152943486,0
2024-07-18 09:34:01.510406,28788.89678725512,605.6874379530526,135.970612558171,-50.80385661998404,1008.0446045171946,0.5437038893577669,56.0024554917438,74.16532589438341,161.65944948514772,3.590010651557648,195.7647423620971,1837.108742352044,81.76313751145187,Stormy,540.1479592694814,68.22564088821878,138.74699972870144,29457.840411373534,579.0976005508322,1850.1866944081587,0
2024-07-18 09:34:02.510406,30309.93424755533,454.46125714419327,226.68839254709613,-48.804600245016246,995.3248913376012,0.3963991376157913,77.75974727795253,-65.60914781652602,-49.13467166963778,-35.897007159077845,353.6342525795692,2002.0519027382036,39.84059107656829,Clear,1521.0374603002128,-151.22618080885934,164.94316038615966,29115.859954265365,532.5368307206935,1845.8407959045298,0
2024-07-18 09:34:03.510406,29599.94808862763,424.80675321499655,45.29630374051768,-45.87281422560459,1026.7820710355454,0.4825564259079918,71.9419859872022,14.03404937271864,69.36197531229138,36.520949629309726,85.67539586147736,1829.7921329934416,41.557550911694776,Cloudy,-709.9861589277025,-29.65450392919672,-172.25976974476202,29566.259707812696,494.98514943741435,1889.6509260278963,0
2024-07-18 09:34:04.510406,30345.294319027875,450.0042768543654,295.3865120331317,-44.9849925161121,1014.9980068739924,0.601826016072932,-68.28099726893576,-129.20289044311858,86.80269272944162,-7.92495841492493,53.62119246892708,1956.944514357111,22.17319667501343,Clear,745.346230400246,25.197523639368853,127.15238136366952,30085.058885070277,443.09076240451856,1929.5961833629187,0
2024-07-18 09:34:05.510406,30220.21951327056,433.4202552841507,316.6007107298996,-48.89002386890341,1022.9028612761166,0.5441282589467792,14.452121219926257,20.060797863352946,-55.66440230041063,29.972013470421917,162.88828115277323,2319.4302660441704,37.53182155793196,Cloudy,-125.0748057573146,-16.584021570214702,362.4857516870593,30055.153973642024,436.0770951178377,2035.3889711315742,0
2024-07-18 09:34:06.510406,30708.89167671966,558.0745629109691,301.6900401374306,-50.164618123845614,1020.3790613603876,0.4908070002834899,-73.59071158728149,-130.20797332910453,100.35522548377128,34.912663912458825,12.389424086404862,2117.994704842733,38.48672237569104,Stormy,488.6721634491005,124.65430762681842,-201.4355612014374,30424.801836339368,480.4996983498286,2131.456495081338,0
2024-07-18 09:34:07.510406,31336.41203379153,501.7379748459241,220.23905276946957,-53.32547537934192,1012.1467805726968,0.4062918365956527,-13.691355131886866,5.950088845842657,65.67413291363351,-56.68400636328832,10.648324179141424,1643.5720576886629,56.63996318548944,Cloudy,627.5203570718695,-56.33658806504502,-474.4226471540701,30755.17440792725,497.7442643470149,2026.9990095251887,0
2024-07-18 09:34:08.510406,29658.271968898283,553.3170365297849,154.56958194469826,-48.32501178030996,1014.2800933288696,0.3770472717018333,6.834441233065292,165.8688257238245,-131.7396200078488,82.96779792655437,337.2930673185376,2134.994810149569,30.77842399554736,Clear,-1678.1400648932467,51.5790616838608,491.42275246090594,30567.858559803153,537.7098580955595,1965.5205242269878,0
2024-07-18 09:34:09.510406,29776.126265303752,497.5967030266361,231.34125077158532,-51.55887093949771,1016.2363481763376,0.5651514891220866,-33.52474740682965,-57.823527944584,-67.70647171731372,-60.26500856238216,35.56476493184836,1891.0727573688584,72.57829009413983,Cloudy,117.85429640546863,-55.72033350314882,-243.92205278071037,30256.936755997856,517.5505714674485,1889.8798750690296,0
2024-07-18 09:34:10.510406,29515.307016098228,487.1122252371117,171.76545739020906,-50.60250002988162,1038.4991996547965,0.6228118333657896,77.51540662588226,-149.056366176563,166.7152558833423,-22.194738209458976,157.94018007063042,1859.1920481054285,1.1368803388494664,Clear,-260.8192492055241,-10.484477789524362,-31.880709263429935,29649.90175010009,512.6753215978443,1961.7532052079516,0
2024-07-18 09:34:11.510406,29900.148142376365,480.4258035243617,95.64844682546942,-50.849874162400766,1009.6384243463076,0.566315272792383,11.191797920271725,-154.2535612538879,85.4004018888428,-53.43105370537573,76.66386508261019,2074.15300857574,2.5425557300734813,Cloudy,384.8411262781374,-6.686421712750018,214.96096047031142,29730.52714125945,488.37824392937,1941.472604683342,0
2024-07-18 09:34:12.510406,29682.172734490523,478.8617197927095,260.25325696730994,-43.72180657401224,1015.8907398961984,0.5694931528164142,31.142979943388116,-62.061635359025885,-42.04838138560666,76.82906994098164,10.782648916767291,2045.9472278769151,7.277169986819898,Clear,-217.9754078858423,-1.5640837316522038,-28.20578069882481,29699.209297655038,482.1332495180612,1993.0974281860274,0
2024-07-18 09:34:13.510406,47942.07755537503,115.00550068470734,57.01234536100047,-11.808459926158918,999.637780268362,0.4558745131230979,-67.50192010815911,-50.21084684755056,-120.57169273174628,35.613526144351226,138.20069547337016,2189.828340323248,35.093770436491944,Stormy,18259.904820884505,-363.85621910800216,143.88111244633296,35841.466144080645,358.0976746672597,2103.3095255919675,1
2024-07-18 09:34:14.510406,29642.325364212385,434.4263140517369,249.64163992911725,-50.61334296419673,1004.041145840932,0.3613903109497531,81.40879081584816,139.74945601746418,-67.42001795647566,-45.58750504938982,260.14334283074874,2169.4236464076985,9.624589254117822,Stormy,-18299.752191162643,319.42081336702955,-20.404693915549615,35755.52521802598,342.76451150971803,2135.0664048692865,1
2024-07-18 09:34:15.510406,31594.92935062693,521.734688881111,99.16807232448068,-51.88351661174743,1008.5045886928044,0.5322976646247787,4.823348535266234,120.56824144545033,93.01344944414312,22.41387673525651,169.69165161617002,1403.3336458641988,30.147039734676586,Clear,1952.603986414546,87.30837482937409,-766.0900005434996,36393.11075673812,357.0555012058519,1920.8618775317145,0
2024-07-18 09:34:16.510406,28422.18365040219,487.4441666981093,204.0927796127119,-51.70959136042349,1021.5480218291262,0.6156798818157735,-77.29173242429762,67.49393536226208,145.8316129982088,42.6659549309619,337.88047551144865,1765.690535588962,42.96452277095456,Stormy,-3172.745700224743,-34.290522183001656,362.35688972476305,29886.479455080505,481.2017232103192,1779.4826092869525,0
2024-07-18 09:34:17.510406,29307.997595668177,524.9563549428058,267.2869526313777,-47.91292070062544,1023.9966417682792,0.3903874463445786,-59.8186926391884,-58.691545853752,95.90433335995476,-38.90899442864551,256.92947033651166,2121.5369410565872,29.128271453161737,Cloudy,885.8139452659889,37.51218824469646,355.84640546762535,29775.036865565766,511.37840350734217,1763.5203741699154,0
2024-07-18 09:34:18.510406,30641.513315781394,490.1181376575993,318.1710285717264,-51.81663809184449,1010.5221228563652,0.4080239957080917,83.88025304700506,87.48791232965277,19.25014142287239,0.5780916493573187,241.93607189949228,2020.9257671097723,82.83240245771754,Stormy,1333.515720113217,-34.8382172852065,-100.61117394681492,29457.231520617253,500.8395530995049,1969.3844145851065,0
2024-07-18 09:34:19.510406,29784.299584562745,432.7134984364175,324.788005730513,-53.20566975527444,1025.0246268719316,0.3512568008305802,81.09597272854504,-170.78456081961082,67.29714206045722,-47.44340465661839,72.71978601546114,2078.038265993392,9.278265318614022,Stormy,-857.2137312186496,-57.40463922118175,57.112498883619764,29911.270165337442,482.5959970122744,2073.5003247199165,0
2024-07-18 09:34:20.510406,30120.33117504532,439.494981368826,88.50711067022291,-50.19221467306262,1019.7352259247028,0.4890208408806963,72.55123699489451,69.26409894206694,116.75937732056389,-4.095811098872716,77.82207619165435,1981.121415078426,20.00438877700369,Stormy,336.0315904825766,6.781482932408494,-96.91685091496606,30182.048025129825,454.10887248761446,2026.695149393863,0
2024-07-18 09:34:21.510406,46021.01020441857,158.74977054654448,196.8466171108201,-65.70791251464462,1078.206837073718,0.5470538483230489,-59.40260470248991,117.94847528064702,33.65037799005728,-71.23668534614491,23.463793235393325,2285.005118409088,4.164721891345813,Stormy,15900.679029373248,-280.74521082228154,303.883703330662,35308.546988008886,343.6527501172629,2114.721599826968,1
2024-07-18 09:34:22.510406,30056.73684158745,449.8561985387324,321.97283685584364,-54.93291379841863,1014.4992880334504,0.4848901743803709,89.16892238800907,43.71462112080332,-146.6326661494357,32.108056038912125,23.881376040535645,2252.024151329108,6.479063979499333,Clear,-15964.273362831118,291.1064279921879,-32.98096707998002,35399.35940701712,349.36698348470117,2172.716894938874,1
2024-07-18 09:34:23.510406,28981.740693457723,506.6843422170852,231.9311486096274,-46.371878510621855,1008.3733251888016,0.5704221791837304,35.00655251227067,-36.42176288598773,-81.7180818275737,-77.89821103027903,278.42676216893886,2110.982027693403,54.01859541950742,Clear,-1074.9961481297287,56.82814367835283,-141.04212363570514,35019.82924648792,371.76343710078754,2216.0037658105325,0
2024-07-18 09:34:24.510406,29015.220455637045,446.6540732879886,170.11717212123546,-54.818447426846845,1011.1420946111328,0.3508941752105338,35.68000798749962,30.605645738494843,-102.91044307120256,-6.416564768065726,119.7800395109482,1977.5247769307744,46.3366585043507,Clear,33.47976217932228,-60.03026892909662,-133.45725076262852,29351.232663560742,467.7315380146022,2113.5103186510946,0
2024-07-18 09:34:25.510406,30488.734297504543,374.05429691342295,32.13162785936924,-54.72416828570612,1024.450751552566,0.4590621465672475,-15.940465445627453,85.80197588925842,129.0331102031144,-35.422979793951555,313.62830875644875,2381.795594407098,16.582265694332843,Cloudy,1473.5138418674978,-72.59977637456564,404.2708174763238,29495.231815533105,442.4642374728324,2156.767466343758,0
2024-07-18 09:34:26.510406,28847.447103211944,466.00534233607306,15.070816511179114,-53.48055169881671,1008.3580461601986,0.5054737265519451,-76.34765747991052,-83.9759086375503,139.22750620363377,-2.858610073175456,32.20257159552212,1896.1534369849117,21.91221884847184,Stormy,-1641.2871942925995,91.95104542265011,-485.64215742218653,29450.467285451177,428.90457084582835,2085.157936107594,0
2024-07-18 09:34:27.510406,27037.959073996248,172.28204156441063,12.096223491174234,-43.01322615325692,998.5748402465138,0.8943919465679159,-23.047852707719212,87.16461957201562,-107.11311868657228,33.79254423164346,38.2024631655754,2435.3600033341754,6.439918780638621,Stormy,-1809.4880292156959,-293.7233007716624,539.2065663492638,28791.380158237578,337.447226937969,2237.769678242061,1
